Unnamed: 0,address_subdivision,address_locality,address_line_2,h_id,price_per_m2,land_area,price,longitude,latitude,near_Koh_Pich_in_km,Koh_Pich_nearest,Koh_Pich_1_2km,Koh_Pich_2_3km,Koh_Pich_3_5km,Koh_Pich_5_10km,near_Russian_Market_in_km,Russian_Market_nearest,Russian_Market_1_2km,Russian_Market_2_3km,Russian_Market_3_5km,Russian_Market_5_10km,near_AEON_Mall_1_in_km,AEON_Mall_1_nearest,AEON_Mall_1_1_2km,AEON_Mall_1_2_3km,AEON_Mall_1_3_5km,AEON_Mall_1_5_10km,near_AEON_Mall_2_in_km,AEON_Mall_2_nearest,AEON_Mall_2_1_2km,AEON_Mall_2_2_3km,AEON_Mall_2_3_5km,AEON_Mall_2_5_10km,near_AEON_Mall_3_in_km,AEON_Mall_3_nearest,AEON_Mall_3_1_2km,AEON_Mall_3_2_3km,AEON_Mall_3_3_5km,AEON_Mall_3_5_10km,near_Bassac_Lane_in_km,Bassac_Lane_nearest,Bassac_Lane_1_2km,Bassac_Lane_2_3km,Bassac_Lane_3_5km,Bassac_Lane_5_10km,near_Koh_Norea_in_km,Koh_Norea_nearest,Koh_Norea_1_2km,Koh_Norea_2_3km,Koh_Norea_3_5km,Koh_Norea_5_10km,near_Camko_City_in_km,Camko_City_nearest,Camko_City_1_2km,Camko_City_2_3km,Camko_City_3_5km,Camko_City_5_10km,near_Olympic_Stadium_in_km,Olympic_Stadium_nearest,Olympic_Stadium_1_2km,Olympic_Stadium_2_3km,Olympic_Stadium_3_5km,Olympic_Stadium_5_10km,near_Phsar_Tmey_in_km,Phsar_Tmey_nearest,Phsar_Tmey_1_2km,Phsar_Tmey_2_3km,Phsar_Tmey_3_5km,Phsar_Tmey_5_10km,near_Boeng_Keng_Kang_1_in_km,Boeng_Keng_Kang_1_nearest,Boeng_Keng_Kang_1_1_2km,Boeng_Keng_Kang_1_2_3km,Boeng_Keng_Kang_1_3_5km,Boeng_Keng_Kang_1_5_10km,near_Wat_Phnom_in_km,Wat_Phnom_nearest,Wat_Phnom_1_2km,Wat_Phnom_2_3km,Wat_Phnom_3_5km,Wat_Phnom_5_10km,near_Chroy_Changvar_Bridge_in_km,Chroy_Changvar_Bridge_nearest,Chroy_Changvar_Bridge_1_2km,Chroy_Changvar_Bridge_2_3km,Chroy_Changvar_Bridge_3_5km,Chroy_Changvar_Bridge_5_10km,near_Vattanac_Tower_in_km,Vattanac_Tower_nearest,Vattanac_Tower_1_2km,Vattanac_Tower_2_3km,Vattanac_Tower_3_5km,Vattanac_Tower_5_10km,near_Royal_Palace_in_km,Royal_Palace_nearest,Royal_Palace_1_2km,Royal_Palace_2_3km,Royal_Palace_3_5km,Royal_Palace_5_10km,near_Sisowath_Riverside_Park_in_km,Sisowath_Riverside_Park_nearest,Sisowath_Riverside_Park_1_2km,Sisowath_Riverside_Park_2_3km,Sisowath_Riverside_Park_3_5km,Sisowath_Riverside_Park_5_10km,near_Phnom_Penh_Airport_in_km,Phnom_Penh_Airport_nearest,Phnom_Penh_Airport_1_2km,Phnom_Penh_Airport_2_3km,Phnom_Penh_Airport_3_5km,Phnom_Penh_Airport_5_10km
0,Phnom Penh,Chbar Ampov,Preaek Pra,8865846a59fffff,2471.51,66,163119.66,104.96738768142184,11.51352220098881,5,0,0,0,0,1,6,0,0,0,0,1,5,0,0,0,0,1,13,0,0,0,0,0,6,0,0,0,0,1,6,0,0,0,0,1,3,0,0,0,1,0,12,0,0,0,0,0,8,0,0,0,0,1,8,0,0,0,0,1,6,0,0,0,0,1,8,0,0,0,0,1,9,0,0,0,0,1,8,0,0,0,0,1,7,0,0,0,0,1,7,0,0,0,0,1,14,0,0,0,0,0
1,Phnom Penh,Chamkar Mon,Tonle Basak,8865846ae1fffff,2234.87,80,178789.59999999998,104.92793204581876,11.55730967849466,1,0,1,0,0,0,2,0,0,1,0,0,1,0,1,0,0,0,6,0,0,0,0,1,8,0,0,0,0,1,0,1,0,0,0,0,3,0,0,0,1,0,5,0,0,0,0,1,1,0,1,0,0,0,1,0,1,0,0,0,0,1,0,0,0,0,2,0,0,1,0,0,3,0,0,0,1,0,2,0,0,1,0,0,0,1,0,0,0,0,1,0,1,0,0,0,9,0,0,0,0,1
2,Phnom Penh,Mean Chey,Stueng Mean Chey,8865846ad1fffff,2385.72,44,104971.68,104.90161671339324,11.530884348844584,4,0,0,0,1,0,1,0,1,0,0,0,3,0,0,0,1,0,7,0,0,0,0,1,5,0,0,0,0,1,3,0,0,0,1,0,5,0,0,0,0,1,7,0,0,0,0,1,3,0,0,0,1,0,4,0,0,0,1,0,3,0,0,0,1,0,5,0,0,0,0,1,6,0,0,0,0,1,4,0,0,0,1,0,4,0,0,0,1,0,5,0,0,0,0,1,7,0,0,0,0,1
3,Phnom Penh,Pur SenChey,Chaom Chau,88658461a1fffff,2005.1,32,64163.2,104.87797224244044,11.529098082329169,7,0,0,0,0,1,4,0,0,0,1,0,6,0,0,0,0,1,7,0,0,0,0,1,6,0,0,0,0,1,5,0,0,0,0,1,8,0,0,0,0,1,7,0,0,0,0,1,4,0,0,0,1,0,6,0,0,0,0,1,5,0,0,0,0,1,7,0,0,0,0,1,7,0,0,0,0,1,6,0,0,0,0,1,6,0,0,0,0,1,7,0,0,0,0,1,4,0,0,0,1,0
4,Phnom Penh,Mean Chey,Boeng Tumpun,8865846ad5fffff,1048.19,40,41927.600000000006,104.90528786282096,11.536312647089268,4,0,0,0,1,0,1,0,1,0,0,0,3,0,0,0,1,0,7,0,0,0,0,1,5,0,0,0,0,1,3,0,0,0,1,0,5,0,0,0,0,1,6,0,0,0,0,1,2,0,0,1,0,0,3,0,0,0,1,0,2,0,0,1,0,0,4,0,0,0,1,0,5,0,0,0,0,1,4,0,0,0,1,0,3,0,0,0,1,0,4,0,0,0,1,0,7,0,0,0,0,1
5,Phnom Penh,Saensokh,Tuek Thla,8865846a9dfffff,2343.33,62,145286.46,104.89462032756484,11.544592583724707,5,0,0,0,0,1,2,0,0,1,0,0,4,0,0,0,1,0,6,0,0,0,0,1,7,0,0,0,0,1,3,0,0,0,1,0,6,0,0,0,0,1,5,0,0,0,0,1,2,0,0,1,0,0,3,0,0,0,1,0,3,0,0,0,1,0,4,0,0,0,1,0,5,0,0,0,0,1,3,0,0,0,1,0,4,0,0,0,1,0,4,0,0,0,1,0,6,0,0,0,0,1
6,Phnom Penh,Saensokh,Phnom Penh Thmei,886584689dfffff,753.15,82,61758.3,104.86142028634347,11.604600499927097,10,0,0,0,0,0,9,0,0,0,0,1,9,0,0,0,0,1,2,0,0,1,0,0,14,0,0,0,0,0,9,0,0,0,0,1,12,0,0,0,0,0,3,0,0,0,1,0,7,0,0,0,0,1,7,0,0,0,0,1,8,0,0,0,0,1,7,0,0,0,0,1,6,0,0,0,0,1,7,0,0,0,0,1,8,0,0,0,0,1,8,0,0,0,0,1,6,0,0,0,0,1
7,Phnom Penh,Chbar Ampov,Preaek Pra,8865846a5bfffff,3439.26,64,220112.64,104.95530743878476,11.515803347501686,4,0,0,0,1,0,5,0,0,0,0,1,4,0,0,0,1,0,12,0,0,0,0,0,5,0,0,0,0,1,5,0,0,0,0,1,3,0,0,0,1,0,11,0,0,0,0,0,6,0,0,0,0,1,7,0,0,0,0,1,5,0,0,0,0,1,7,0,0,0,0,1,8,0,0,0,0,1,7,0,0,0,0,1,6,0,0,0,0,1,6,0,0,0,0,1,13,0,0,0,0,0
8,Phnom Penh,Chamkar Mon,Tonle Basak,8865846a17fffff,2536.83,62,157283.46,104.9417485831379,11.552462493378847,0,1,0,0,0,0,3,0,0,0,1,0,1,0,1,0,0,0,8,0,0,0,0,1,8,0,0,0,0,1,1,0,1,0,0,0,1,0,1,0,0,0,7,0,0,0,0,1,3,0,0,0,1,0,3,0,0,0,1,0,2,0,0,1,0,0,3,0,0,0,1,0,4,0,0,0,1,0,3,0,0,0,1,0,1,0,1,0,0,0,2,0,0,1,0,0,11,0,0,0,0,0
9,Phnom Penh,Chamkar Mon,Tonle Basak,8865846ac1fffff,2755.52,32,88176.64,104.91828554129911,11.5399394347746,2,0,0,1,0,0,0,1,0,0,0,0,1,0,1,0,0,0,7,0,0,0,0,1,6,0,0,0,0,1,1,0,1,0,0,0,3,0,0,0,1,0,6,0,0,0,0,1,2,0,0,1,0,0,3,0,0,0,1,0,1,0,1,0,0,0,4,0,0,0,1,0,5,0,0,0,0,1,3,0,0,0,1,0,2,0,0,1,0,0,3,0,0,0,1,0,8,0,0,0,0,1
10,Phnom Penh,Pur SenChey,Trapeang Krasang,8865846c09fffff,1412.22,68,96030.96,104.78564296979292,11.55832347808862,17,0,0,0,0,0,14,0,0,0,0,0,16,0,0,0,0,0,11,0,0,0,0,0,16,0,0,0,0,0,15,0,0,0,0,0,18,0,0,0,0,0,12,0,0,0,0,0,13,0,0,0,0,0,14,0,0,0,0,0,14,0,0,0,0,0,14,0,0,0,0,0,14,0,0,0,0,0,14,0,0,0,0,0,15,0,0,0,0,0,15,0,0,0,0,0,5,0,0,0,0,1
11,Phnom Penh,Chbar Ampov,Veal Sbov,88658478b3fffff,1918.37,88,168816.56,104.96444955971752,11.509430449687768,5,0,0,0,0,1,6,0,0,0,0,1,5,0,0,0,0,1,13,0,0,0,0,0,6,0,0,0,0,1,6,0,0,0,0,1,4,0,0,0,1,0,12,0,0,0,0,0,8,0,0,0,0,1,8,0,0,0,0,1,6,0,0,0,0,1,8,0,0,0,0,1,9,0,0,0,0,1,8,0,0,0,0,1,7,0,0,0,0,1,7,0,0,0,0,1,14,0,0,0,0,0
12,Phnom Penh,Chamkar Mon,Boeng Keng Kang Ti Muoy,8865846ae9fffff,3476.44,78,271162.32,104.93230514167534,11.549169994278536,1,0,1,0,0,0,2,0,0,1,0,0,0,1,0,0,0,0,7,0,0,0,0,1,7,0,0,0,0,1,0,1,0,0,0,0,2,0,0,1,0,0,6,0,0,0,0,1,2,0,0,1,0,0,2,0,0,1,0,0,1,0,1,0,0,0,3,0,0,0,1,0,4,0,0,0,1,0,3,0,0,0,1,0,1,0,1,0,0,0,2,0,0,1,0,0,10,0,0,0,0,0
13,Phnom Penh,Saensokh,Khmuonh,88658468a3fffff,1270.34,52,66057.68,104.88003188335684,11.63970107086907,11,0,0,0,0,0,11,0,0,0,0,0,11,0,0,0,0,0,4,0,0,0,1,0,17,0,0,0,0,0,10,0,0,0,0,0,13,0,0,0,0,0,5,0,0,0,0,1,9,0,0,0,0,1,8,0,0,0,0,1,10,0,0,0,0,0,8,0,0,0,0,1,7,0,0,0,0,1,8,0,0,0,0,1,9,0,0,0,0,1,9,0,0,0,0,1,11,0,0,0,0,0
14,Phnom Penh,Dangkao,Dangkao,8865846027fffff,424.78,54,22938.12,104.89286600290612,11.476910788981304,9,0,0,0,0,1,7,0,0,0,0,1,8,0,0,0,0,1,13,0,0,0,0,0,2,0,0,1,0,0,9,0,0,0,0,1,9,0,0,0,0,1,13,0,0,0,0,0,9,0,0,0,0,1,10,0,0,0,0,0,8,0,0,0,0,1,11,0,0,0,0,0,12,0,0,0,0,0,10,0,0,0,0,0,10,0,0,0,0,0,11,0,0,0,0,0,10,0,0,0,0,0
15,Phnom Penh,Mean Chey,Stueng Mean Chey,8865846f4dfffff,3008.72,50,150436.0,104.86749776788632,11.539921986206034,8,0,0,0,0,1,5,0,0,0,0,1,7,0,0,0,0,1,6,0,0,0,0,1,8,0,0,0,0,1,6,0,0,0,0,1,9,0,0,0,0,1,6,0,0,0,0,1,5,0,0,0,0,1,6,0,0,0,0,1,6,0,0,0,0,1,7,0,0,0,0,1,7,0,0,0,0,1,6,0,0,0,0,1,7,0,0,0,0,1,7,0,0,0,0,1,3,0,0,0,1,0
16,Phnom Penh,Doun Penh,Voat Phnum,8865846aadfffff,1214.8,76,92324.8,104.92160092834516,11.574980005619288,3,0,0,0,1,0,3,0,0,0,1,0,3,0,0,0,1,0,5,0,0,0,0,1,10,0,0,0,0,0,2,0,0,1,0,0,4,0,0,0,1,0,3,0,0,0,1,0,2,0,0,1,0,0,0,1,0,0,0,0,2,0,0,1,0,0,0,1,0,0,0,0,1,0,1,0,0,0,0,1,0,0,0,0,1,0,1,0,0,0,1,0,1,0,0,0,9,0,0,0,0,1
17,Phnom Penh,Chraoy Chongvar,Bak Kaeng,88658469adfffff,235.89,74,17455.86,104.92770131214772,11.679969530653873,14,0,0,0,0,0,15,0,0,0,0,0,14,0,0,0,0,0,10,0,0,0,0,0,21,0,0,0,0,0,14,0,0,0,0,0,15,0,0,0,0,0,10,0,0,0,0,0,13,0,0,0,0,0,12,0,0,0,0,0,14,0,0,0,0,0,11,0,0,0,0,0,10,0,0,0,0,0,11,0,0,0,0,0,12,0,0,0,0,0,12,0,0,0,0,0,17,0,0,0,0,0
18,Phnom Penh,Chamkar Mon,Tuol Tumpung Ti Muoy,8865846ac7fffff,3234.61,86,278176.46,104.91615393082552,11.546297398536922,2,0,0,1,0,0,0,1,0,0,0,0,1,0,1,0,0,0,6,0,0,0,0,1,6,0,0,0,0,1,1,0,1,0,0,0,4,0,0,0,1,0,5,0,0,0,0,1,1,0,1,0,0,0,2,0,0,1,0,0,0,1,0,0,0,0,3,0,0,0,1,0,4,0,0,0,1,0,2,0,0,1,0,0,2,0,0,1,0,0,3,0,0,0,1,0,8,0,0,0,0,1
19,Phnom Penh,Doun Penh,Phsar Kandal Ti Muoy,8865846ae5fffff,1710.24,46,78671.04,104.93667212836596,11.565070139349812,1,0,1,0,0,0,3,0,0,0,1,0,1,0,1,0,0,0,6,0,0,0,0,1,9,0,0,0,0,1,1,0,1,0,0,0,2,0,0,1,0,0,5,0,0,0,0,1,2,0,0,1,0,0,2,0,0,1,0,0,2,0,0,1,0,0,2,0,0,1,0,0,3,0,0,0,1,0,2,0,0,1,0,0,0,1,0,0,0,0,0,1,0,0,0,0,10,0,0,0,0,0
20,Phnom Penh,Doun Penh,Srah Chak,8865846819fffff,3737.03,46,171903.38,104.91843613660504,11.588742580121554,4,0,0,0,1,0,5,0,0,0,0,1,4,0,0,0,1,0,4,0,0,0,1,0,11,0,0,0,0,0,4,0,0,0,1,0,6,0,0,0,0,1,3,0,0,0,1,0,3,0,0,0,1,0,2,0,0,1,0,0,4,0,0,0,1,0,1,0,1,0,0,0,0,1,0,0,0,0,1,0,1,0,0,0,2,0,0,1,0,0,2,0,0,1,0,0,9,0,0,0,0,1
21,Phnom Penh,Pur SenChey,Phleung Chheh Roteh,8865846e6bfffff,2031.3,104,211255.2,104.82299740923926,11.510341033078303,13,0,0,0,0,0,10,0,0,0,0,0,12,0,0,0,0,0,11,0,0,0,0,0,10,0,0,0,0,0,12,0,0,0,0,0,14,0,0,0,0,0,11,0,0,0,0,0,10,0,0,0,0,0,12,0,0,0,0,0,11,0,0,0,0,0,12,0,0,0,0,0,13,0,0,0,0,0,12,0,0,0,0,0,12,0,0,0,0,0,13,0,0,0,0,0,4,0,0,0,1,0
22,Phnom Penh,Pur SenChey,Kamboul,8865846c1bfffff,196.05,30,5881.5,104.75318635074296,11.559277713955616,20,0,0,0,0,0,17,0,0,0,0,0,19,0,0,0,0,0,14,0,0,0,0,0,19,0,0,0,0,0,18,0,0,0,0,0,21,0,0,0,0,0,15,0,0,0,0,0,17,0,0,0,0,0,18,0,0,0,0,0,18,0,0,0,0,0,18,0,0,0,0,0,18,0,0,0,0,0,17,0,0,0,0,0,19,0,0,0,0,0,19,0,0,0,0,0,9,0,0,0,0,1
23,Phnom Penh,Saensokh,Krang Thnong,8865846d45fffff,533.26,56,29862.56,104.83767417158424,11.60877027783233,13,0,0,0,0,0,11,0,0,0,0,0,12,0,0,0,0,0,5,0,0,0,0,1,16,0,0,0,0,0,11,0,0,0,0,0,14,0,0,0,0,0,6,0,0,0,0,1,9,0,0,0,0,1,9,0,0,0,0,1,11,0,0,0,0,0,9,0,0,0,0,1,9,0,0,0,0,1,9,0,0,0,0,1,11,0,0,0,0,0,11,0,0,0,0,0,6,0,0,0,0,1
24,Phnom Penh,Chraoy Chongvar,Bak Kaeng,88658469bdfffff,322.73,52,16781.96,104.90557434646894,11.679638353530155,14,0,0,0,0,0,15,0,0,0,0,0,14,0,0,0,0,0,9,0,0,0,0,1,21,0,0,0,0,0,14,0,0,0,0,0,15,0,0,0,0,0,9,0,0,0,0,1,13,0,0,0,0,0,12,0,0,0,0,0,14,0,0,0,0,0,11,0,0,0,0,0,10,0,0,0,0,0,11,0,0,0,0,0,13,0,0,0,0,0,12,0,0,0,0,0,16,0,0,0,0,0
25,Phnom Penh,Saensokh,Krang Thnong,8865846d49fffff,1515.06,64,96963.84,104.84024657021284,11.59299221054398,12,0,0,0,0,0,9,0,0,0,0,1,11,0,0,0,0,0,4,0,0,0,1,0,14,0,0,0,0,0,10,0,0,0,0,0,13,0,0,0,0,0,5,0,0,0,0,1,8,0,0,0,0,1,8,0,0,0,0,1,10,0,0,0,0,0,9,0,0,0,0,1,8,0,0,0,0,1,8,0,0,0,0,1,10,0,0,0,0,0,10,0,0,0,0,0,4,0,0,0,1,0
26,Phnom Penh,Mean Chey,Stueng Mean Chey,88658461a1fffff,1842.84,30,55285.2,104.87105014049398,11.524684898190143,8,0,0,0,0,1,5,0,0,0,0,1,7,0,0,0,0,1,8,0,0,0,0,1,6,0,0,0,0,1,6,0,0,0,0,1,9,0,0,0,0,1,8,0,0,0,0,1,5,0,0,0,0,1,7,0,0,0,0,1,6,0,0,0,0,1,7,0,0,0,0,1,8,0,0,0,0,1,7,0,0,0,0,1,7,0,0,0,0,1,8,0,0,0,0,1,4,0,0,0,1,0
27,Phnom Penh,Prampir Meakkakra,Veal Vong,8865846aa9fffff,2672.38,120,320685.60000000003,104.9183816911722,11.56371294059941,2,0,0,1,0,0,2,0,0,1,0,0,2,0,0,1,0,0,5,0,0,0,0,1,8,0,0,0,0,1,1,0,1,0,0,0,4,0,0,0,1,0,4,0,0,0,1,0,1,0,1,0,0,0,0,1,0,0,0,0,1,0,1,0,0,0,1,0,1,0,0,0,2,0,0,1,0,0,1,0,1,0,0,0,1,0,1,0,0,0,1,0,1,0,0,0,8,0,0,0,0,1
28,Phnom Penh,Russey Keo,Ruessei Kaev,8865846817fffff,949.43,42,39876.06,104.91051454912338,11.612767591077764,7,0,0,0,0,1,7,0,0,0,0,1,7,0,0,0,0,1,3,0,0,0,1,0,14,0,0,0,0,0,6,0,0,0,0,1,8,0,0,0,0,1,2,0,0,1,0,0,5,0,0,0,0,1,4,0,0,0,1,0,6,0,0,0,0,1,4,0,0,0,1,0,2,0,0,1,0,0,4,0,0,0,1,0,5,0,0,0,0,1,5,0,0,0,0,1,10,0,0,0,0,0
29,Phnom Penh,Chbar Ampov,Veal Sbov,8865846a59fffff,2191.4,114,249819.6,104.96462013342966,11.514891543735612,4,0,0,0,1,0,6,0,0,0,0,1,5,0,0,0,0,1,12,0,0,0,0,0,6,0,0,0,0,1,5,0,0,0,0,1,3,0,0,0,1,0,11,0,0,0,0,0,7,0,0,0,0,1,7,0,0,0,0,1,6,0,0,0,0,1,8,0,0,0,0,1,9,0,0,0,0,1,8,0,0,0,0,1,6,0,0,0,0,1,7,0,0,0,0,1,14,0,0,0,0,0
30,Phnom Penh,Pur SenChey,Chaom Chau,8865846183fffff,1554.27,68,105690.36,104.85733748771668,11.504558403853094,10,0,0,0,0,0,7,0,0,0,0,1,9,0,0,0,0,1,10,0,0,0,0,0,6,0,0,0,0,1,9,0,0,0,0,1,11,0,0,0,0,0,10,0,0,0,0,0,8,0,0,0,0,1,9,0,0,0,0,1,8,0,0,0,0,1,10,0,0,0,0,0,11,0,0,0,0,0,10,0,0,0,0,0,10,0,0,0,0,0,10,0,0,0,0,0,5,0,0,0,0,1
31,Phnom Penh,Dangkao,Pong Tuek,8865846085fffff,148.39,84,12464.759999999998,104.83420672457775,11.462784562477506,15,0,0,0,0,0,12,0,0,0,0,0,14,0,0,0,0,0,16,0,0,0,0,0,9,0,0,0,0,1,14,0,0,0,0,0,15,0,0,0,0,0,15,0,0,0,0,0,13,0,0,0,0,0,14,0,0,0,0,0,13,0,0,0,0,0,15,0,0,0,0,0,16,0,0,0,0,0,15,0,0,0,0,0,15,0,0,0,0,0,15,0,0,0,0,0,9,0,0,0,0,1
32,Phnom Penh,Mean Chey,Chak Angrae Leu,8865846acdfffff,4700.32,118,554637.76,104.93395467778905,11.532017481308996,2,0,0,1,0,0,2,0,0,1,0,0,1,0,1,0,0,0,9,0,0,0,0,1,5,0,0,0,0,1,2,0,0,1,0,0,2,0,0,1,0,0,8,0,0,0,0,1,4,0,0,0,1,0,4,0,0,0,1,0,2,0,0,1,0,0,5,0,0,0,0,1,6,0,0,0,0,1,4,0,0,0,1,0,3,0,0,0,1,0,4,0,0,0,1,0,10,0,0,0,0,0
33,Phnom Penh,Doun Penh,Chey Chummeah,8865846ae1fffff,2268.05,120,272166.0,104.92380640635854,11.554373455451382,2,0,0,1,0,0,1,0,1,0,0,0,1,0,1,0,0,0,6,0,0,0,0,1,7,0,0,0,0,1,0,1,0,0,0,0,3,0,0,0,1,0,5,0,0,0,0,1,1,0,1,0,0,0,1,0,1,0,0,0,0,1,0,0,0,0,2,0,0,1,0,0,3,0,0,0,1,0,2,0,0,1,0,0,1,0,1,0,0,0,1,0,1,0,0,0,9,0,0,0,0,1
34,Phnom Penh,Praek Pnov,Ponsang,886580d2d9fffff,320.16,84,26893.44,104.78443662381952,11.64969308531096,20,0,0,0,0,0,18,0,0,0,0,0,19,0,0,0,0,0,12,0,0,0,0,0,23,0,0,0,0,0,18,0,0,0,0,0,21,0,0,0,0,0,13,0,0,0,0,0,16,0,0,0,0,0,17,0,0,0,0,0,18,0,0,0,0,0,16,0,0,0,0,0,16,0,0,0,0,0,16,0,0,0,0,0,18,0,0,0,0,0,18,0,0,0,0,0,12,0,0,0,0,0
35,Phnom Penh,Saensokh,Tuek Thla,8865846a93fffff,1922.45,92,176865.4,104.86884830946951,11.553967023873968,7,0,0,0,0,1,5,0,0,0,0,1,6,0,0,0,0,1,5,0,0,0,0,1,9,0,0,0,0,1,6,0,0,0,0,1,9,0,0,0,0,1,5,0,0,0,0,1,4,0,0,0,1,0,5,0,0,0,0,1,5,0,0,0,0,1,6,0,0,0,0,1,6,0,0,0,0,1,5,0,0,0,0,1,6,0,0,0,0,1,7,0,0,0,0,1,3,0,0,0,1,0
36,Phnom Penh,Russey Keo,Chrang Chamreh Ti Pir,88658468abfffff,2910.41,38,110595.58,104.87695182861476,11.624490183013412,10,0,0,0,0,0,10,0,0,0,0,0,10,0,0,0,0,0,2,0,0,1,0,0,16,0,0,0,0,0,9,0,0,0,0,1,12,0,0,0,0,0,3,0,0,0,1,0,8,0,0,0,0,1,7,0,0,0,0,1,9,0,0,0,0,1,7,0,0,0,0,1,6,0,0,0,0,1,7,0,0,0,0,1,8,0,0,0,0,1,8,0,0,0,0,1,9,0,0,0,0,1
37,Phnom Penh,Doun Penh,Srah Chak,8865846aa1fffff,4063.01,88,357544.88,104.90825178977728,11.580382850778632,4,0,0,0,1,0,4,0,0,0,1,0,4,0,0,0,1,0,3,0,0,0,1,0,10,0,0,0,0,0,3,0,0,0,1,0,6,0,0,0,0,1,2,0,0,1,0,0,2,0,0,1,0,0,1,0,1,0,0,0,3,0,0,0,1,0,1,0,1,0,0,0,1,0,1,0,0,0,1,0,1,0,0,0,2,0,0,1,0,0,2,0,0,1,0,0,8,0,0,0,0,1
38,Phnom Penh,Tuol Kouk,Phsar Daeum Kor,8865846a81fffff,3445.09,98,337618.82,104.9001819775665,11.555989678848492,4,0,0,0,1,0,2,0,0,1,0,0,3,0,0,0,1,0,5,0,0,0,0,1,8,0,0,0,0,1,2,0,0,1,0,0,5,0,0,0,0,1,4,0,0,0,1,0,1,0,1,0,0,0,2,0,0,1,0,0,2,0,0,1,0,0,3,0,0,0,1,0,4,0,0,0,1,0,2,0,0,1,0,0,3,0,0,0,1,0,3,0,0,0,1,0,6,0,0,0,0,1
39,Phnom Penh,Pur SenChey,Kakab,8865846f19fffff,758.18,80,60654.4,104.82302282478044,11.545280190291464,12,0,0,0,0,0,9,0,0,0,0,1,11,0,0,0,0,0,8,0,0,0,0,1,12,0,0,0,0,0,11,0,0,0,0,0,14,0,0,0,0,0,9,0,0,0,0,1,9,0,0,0,0,1,10,0,0,0,0,0,10,0,0,0,0,0,11,0,0,0,0,0,11,0,0,0,0,0,10,0,0,0,0,0,11,0,0,0,0,0,12,0,0,0,0,0,1,0,1,0,0,0
40,Phnom Penh,Chraoy Chongvar,Preaek Ta Sek,88658469dbfffff,2546.6,48,122236.8,104.90296635002744,11.634383120764298,10,0,0,0,0,0,10,0,0,0,0,0,10,0,0,0,0,0,4,0,0,0,1,0,16,0,0,0,0,0,9,0,0,0,0,1,11,0,0,0,0,0,4,0,0,0,1,0,8,0,0,0,0,1,7,0,0,0,0,1,9,0,0,0,0,1,6,0,0,0,0,1,5,0,0,0,0,1,6,0,0,0,0,1,8,0,0,0,0,1,7,0,0,0,0,1,11,0,0,0,0,0
41,Phnom Penh,Chamkar Mon,Tonle Basak,8865846a13fffff,4202.5,64,268960.0,104.9374121862677,11.541982309080868,1,0,1,0,0,0,2,0,0,1,0,0,0,1,0,0,0,0,8,0,0,0,0,1,6,0,0,0,0,1,1,0,1,0,0,0,1,0,1,0,0,0,7,0,0,0,0,1,3,0,0,0,1,0,3,0,0,0,1,0,1,0,1,0,0,0,4,0,0,0,1,0,5,0,0,0,0,1,4,0,0,0,1,0,2,0,0,1,0,0,3,0,0,0,1,0,10,0,0,0,0,0
42,Phnom Penh,Mean Chey,Stueng Mean Chey,8865846ad5fffff,1149.39,34,39079.26,104.90057121226911,11.535045969276265,4,0,0,0,1,0,1,0,1,0,0,0,3,0,0,0,1,0,7,0,0,0,0,1,5,0,0,0,0,1,3,0,0,0,1,0,5,0,0,0,0,1,6,0,0,0,0,1,2,0,0,1,0,0,4,0,0,0,1,0,3,0,0,0,1,0,5,0,0,0,0,1,6,0,0,0,0,1,4,0,0,0,1,0,4,0,0,0,1,0,5,0,0,0,0,1,7,0,0,0,0,1
43,Phnom Penh,Pur SenChey,Kakab,8865846f53fffff,1247.34,32,39914.88,104.82307723619152,11.53833305954583,13,0,0,0,0,0,9,0,0,0,0,1,11,0,0,0,0,0,9,0,0,0,0,1,11,0,0,0,0,0,11,0,0,0,0,0,14,0,0,0,0,0,9,0,0,0,0,1,9,0,0,0,0,1,10,0,0,0,0,0,10,0,0,0,0,0,11,0,0,0,0,0,11,0,0,0,0,0,10,0,0,0,0,0,11,0,0,0,0,0,12,0,0,0,0,0,2,0,0,1,0,0
44,Phnom Penh,Chamkar Mon,Phsar Daeum Thkov,8865846135fffff,3213.27,84,269914.68,104.92444347332903,11.52061644442196,3,0,0,0,1,0,2,0,0,1,0,0,3,0,0,0,1,0,9,0,0,0,0,1,4,0,0,0,1,0,3,0,0,0,1,0,4,0,0,0,1,0,8,0,0,0,0,1,4,0,0,0,1,0,5,0,0,0,0,1,3,0,0,0,1,0,6,0,0,0,0,1,7,0,0,0,0,1,5,0,0,0,0,1,4,0,0,0,1,0,5,0,0,0,0,1,10,0,0,0,0,0
45,Phnom Penh,Saensokh,Phnom Penh Thmei,8865846ab3fffff,1407.38,52,73183.76000000001,104.87972926017775,11.576846521300489,7,0,0,0,0,1,5,0,0,0,0,1,6,0,0,0,0,1,2,0,0,1,0,0,11,0,0,0,0,0,5,0,0,0,0,1,8,0,0,0,0,1,2,0,0,1,0,0,3,0,0,0,1,0,4,0,0,0,1,0,5,0,0,0,0,1,4,0,0,0,1,0,4,0,0,0,1,0,4,0,0,0,1,0,5,0,0,0,0,1,5,0,0,0,0,1,5,0,0,0,0,1
46,Phnom Penh,Dangkao,Kong Noy,88658460c5fffff,110.71,72,7971.12,104.85403604782944,11.443132208551328,15,0,0,0,0,0,12,0,0,0,0,0,14,0,0,0,0,0,17,0,0,0,0,0,8,0,0,0,0,1,14,0,0,0,0,0,15,0,0,0,0,0,17,0,0,0,0,0,14,0,0,0,0,0,15,0,0,0,0,0,14,0,0,0,0,0,16,0,0,0,0,0,17,0,0,0,0,0,15,0,0,0,0,0,15,0,0,0,0,0,16,0,0,0,0,0,11,0,0,0,0,0
47,Phnom Penh,Chbar Ampov,Preaek Aeng,8865846a43fffff,1895.93,118,223719.74,104.9741998243698,11.530564387356998,4,0,0,0,1,0,6,0,0,0,0,1,4,0,0,0,1,0,12,0,0,0,0,0,8,0,0,0,0,1,5,0,0,0,0,1,2,0,0,1,0,0,11,0,0,0,0,0,7,0,0,0,0,1,7,0,0,0,0,1,6,0,0,0,0,1,7,0,0,0,0,1,8,0,0,0,0,1,7,0,0,0,0,1,6,0,0,0,0,1,6,0,0,0,0,1,15,0,0,0,0,0
48,Phnom Penh,Praek Pnov,Kouk Roka,8865846d59fffff,746.78,32,23896.96,104.80903314139672,11.590246875266851,15,0,0,0,0,0,12,0,0,0,0,0,14,0,0,0,0,0,8,0,0,0,0,1,16,0,0,0,0,0,13,0,0,0,0,0,16,0,0,0,0,0,8,0,0,0,0,1,11,0,0,0,0,0,12,0,0,0,0,0,13,0,0,0,0,0,12,0,0,0,0,0,11,0,0,0,0,0,11,0,0,0,0,0,13,0,0,0,0,0,13,0,0,0,0,0,5,0,0,0,0,1
49,Phnom Penh,Dangkao,Prey Veaeng,88658460adfffff,389.85,60,23391.0,104.84998476896092,11.47511739302993,13,0,0,0,0,0,10,0,0,0,0,0,12,0,0,0,0,0,14,0,0,0,0,0,7,0,0,0,0,1,12,0,0,0,0,0,13,0,0,0,0,0,13,0,0,0,0,0,11,0,0,0,0,0,12,0,0,0,0,0,11,0,0,0,0,0,13,0,0,0,0,0,14,0,0,0,0,0,13,0,0,0,0,0,13,0,0,0,0,0,13,0,0,0,0,0,8,0,0,0,0,1
50,Phnom Penh,Chbar Ampov,Veal Sbov,8865846a03fffff,3966.54,64,253858.56,104.9587380852515,11.54794536722871,1,0,1,0,0,0,4,0,0,0,1,0,2,0,0,1,0,0,10,0,0,0,0,0,8,0,0,0,0,1,3,0,0,0,1,0,0,1,0,0,0,0,8,0,0,0,0,1,5,0,0,0,0,1,5,0,0,0,0,1,3,0,0,0,1,0,5,0,0,0,0,1,6,0,0,0,0,1,5,0,0,0,0,1,3,0,0,0,1,0,3,0,0,0,1,0,13,0,0,0,0,0
51,Phnom Penh,Mean Chey,Chak Angrae Kraom,886584616bfffff,489.53,50,24476.5,104.95235414822449,11.497519517882017,6,0,0,0,0,1,6,0,0,0,0,1,6,0,0,0,0,1,13,0,0,0,0,0,4,0,0,0,1,0,6,0,0,0,0,1,5,0,0,0,0,1,12,0,0,0,0,0,8,0,0,0,0,1,8,0,0,0,0,1,6,0,0,0,0,1,9,0,0,0,0,1,10,0,0,0,0,0,9,0,0,0,0,1,7,0,0,0,0,1,8,0,0,0,0,1,13,0,0,0,0,0
52,Phnom Penh,Dangkao,Preaek Kampues,886584600bfffff,1103.36,38,41927.67999999999,104.884703423898,11.433955795738836,14,0,0,0,0,0,12,0,0,0,0,0,13,0,0,0,0,0,18,0,0,0,0,0,6,0,0,0,0,1,14,0,0,0,0,0,14,0,0,0,0,0,17,0,0,0,0,0,14,0,0,0,0,0,15,0,0,0,0,0,13,0,0,0,0,0,16,0,0,0,0,0,17,0,0,0,0,0,15,0,0,0,0,0,15,0,0,0,0,0,15,0,0,0,0,0,13,0,0,0,0,0
53,Phnom Penh,Chamkar Mon,Tuol Tumpung Ti Pir,8865846ac7fffff,5580.91,30,167427.3,104.92024707093,11.545641606109555,2,0,0,1,0,0,0,1,0,0,0,0,1,0,1,0,0,0,7,0,0,0,0,1,6,0,0,0,0,1,1,0,1,0,0,0,3,0,0,0,1,0,6,0,0,0,0,1,1,0,1,0,0,0,2,0,0,1,0,0,0,1,0,0,0,0,3,0,0,0,1,0,4,0,0,0,1,0,3,0,0,0,1,0,2,0,0,1,0,0,2,0,0,1,0,0,9,0,0,0,0,1
54,Phnom Penh,Pur SenChey,Chaom Chau,8865846f5bfffff,727.81,74,53857.94,104.82485858764916,11.531299363591202,12,0,0,0,0,0,9,0,0,0,0,1,11,0,0,0,0,0,9,0,0,0,0,1,11,0,0,0,0,0,11,0,0,0,0,0,14,0,0,0,0,0,10,0,0,0,0,0,9,0,0,0,0,1,11,0,0,0,0,0,10,0,0,0,0,0,11,0,0,0,0,0,12,0,0,0,0,0,11,0,0,0,0,0,11,0,0,0,0,0,12,0,0,0,0,0,2,0,0,1,0,0
55,Phnom Penh,Chbar Ampov,Veal Sbov,8865846a43fffff,1679.12,110,184703.2,104.97369203844757,11.532972461221815,4,0,0,0,1,0,6,0,0,0,0,1,4,0,0,0,1,0,12,0,0,0,0,0,8,0,0,0,0,1,5,0,0,0,0,1,2,0,0,1,0,0,11,0,0,0,0,0,7,0,0,0,0,1,7,0,0,0,0,1,5,0,0,0,0,1,7,0,0,0,0,1,8,0,0,0,0,1,7,0,0,0,0,1,6,0,0,0,0,1,6,0,0,0,0,1,14,0,0,0,0,0
56,Phnom Penh,Pur SenChey,Kakab,8865846f6bfffff,1347.61,66,88942.26,104.86262690486252,11.56260917705388,8,0,0,0,0,1,6,0,0,0,0,1,7,0,0,0,0,1,4,0,0,0,1,0,10,0,0,0,0,0,7,0,0,0,0,1,10,0,0,0,0,0,4,0,0,0,1,0,5,0,0,0,0,1,6,0,0,0,0,1,6,0,0,0,0,1,6,0,0,0,0,1,6,0,0,0,0,1,6,0,0,0,0,1,7,0,0,0,0,1,7,0,0,0,0,1,3,0,0,0,1,0
57,Phnom Penh,Chbar Ampov,Preaek Pra,8865846165fffff,2236.92,38,85002.96,104.96384540375465,11.51067638979351,5,0,0,0,0,1,6,0,0,0,0,1,5,0,0,0,0,1,13,0,0,0,0,0,6,0,0,0,0,1,6,0,0,0,0,1,3,0,0,0,1,0,12,0,0,0,0,0,8,0,0,0,0,1,8,0,0,0,0,1,6,0,0,0,0,1,8,0,0,0,0,1,9,0,0,0,0,1,8,0,0,0,0,1,7,0,0,0,0,1,7,0,0,0,0,1,14,0,0,0,0,0
58,Phnom Penh,Chamkar Mon,Tuol Svay Prey Ti Pir,8865846a8dfffff,1309.41,46,60232.86,104.91440346758417,11.549381606797104,3,0,0,0,1,0,0,1,0,0,0,0,1,0,1,0,0,0,6,0,0,0,0,1,7,0,0,0,0,1,1,0,1,0,0,0,4,0,0,0,1,0,5,0,0,0,0,1,1,0,1,0,0,0,2,0,0,1,0,0,0,1,0,0,0,0,3,0,0,0,1,0,4,0,0,0,1,0,2,0,0,1,0,0,2,0,0,1,0,0,2,0,0,1,0,0,8,0,0,0,0,1
59,Phnom Penh,Mean Chey,Chak Angrae Kraom,8865846105fffff,1958.49,90,176264.1,104.93877933044608,11.505447757534608,5,0,0,0,0,1,4,0,0,0,1,0,4,0,0,0,1,0,12,0,0,0,0,0,3,0,0,0,1,0,5,0,0,0,0,1,4,0,0,0,1,0,11,0,0,0,0,0,6,0,0,0,0,1,7,0,0,0,0,1,5,0,0,0,0,1,8,0,0,0,0,1,9,0,0,0,0,1,7,0,0,0,0,1,6,0,0,0,0,1,7,0,0,0,0,1,12,0,0,0,0,0
60,Phnom Penh,Dangkao,Dangkao,88658461c7fffff,1840.51,114,209818.14,104.87928640487549,11.494134894711069,9,0,0,0,0,1,6,0,0,0,0,1,8,0,0,0,0,1,11,0,0,0,0,0,4,0,0,0,1,0,8,0,0,0,0,1,9,0,0,0,0,1,11,0,0,0,0,0,8,0,0,0,0,1,9,0,0,0,0,1,7,0,0,0,0,1,10,0,0,0,0,0,11,0,0,0,0,0,9,0,0,0,0,1,9,0,0,0,0,1,10,0,0,0,0,0,7,0,0,0,0,1
61,Phnom Penh,Tuol Kouk,Tuek L'ak Ti Pir,8865846ab9fffff,1679.42,94,157865.48,104.8953151966644,11.558970492982455,5,0,0,0,0,1,2,0,0,1,0,0,4,0,0,0,1,0,4,0,0,0,1,0,8,0,0,0,0,1,3,0,0,0,1,0,6,0,0,0,0,1,3,0,0,0,1,0,1,0,1,0,0,0,2,0,0,1,0,0,3,0,0,0,1,0,3,0,0,0,1,0,4,0,0,0,1,0,2,0,0,1,0,0,3,0,0,0,1,0,4,0,0,0,1,0,6,0,0,0,0,1
62,Phnom Penh,Chbar Ampov,Nirouth,8865846a57fffff,2746.84,120,329620.80000000005,104.95449317691292,11.532268319913248,2,0,0,1,0,0,4,0,0,0,1,0,2,0,0,1,0,0,10,0,0,0,0,0,6,0,0,0,0,1,3,0,0,0,1,0,1,0,1,0,0,0,9,0,0,0,0,1,5,0,0,0,0,1,5,0,0,0,0,1,4,0,0,0,1,0,6,0,0,0,0,1,7,0,0,0,0,1,6,0,0,0,0,1,4,0,0,0,1,0,4,0,0,0,1,0,12,0,0,0,0,0
63,Phnom Penh,Dangkao,Dangkao,88658461e1fffff,2769.73,38,105249.74,104.88949157912867,11.506967664929393,7,0,0,0,0,1,4,0,0,0,1,0,6,0,0,0,0,1,10,0,0,0,0,0,3,0,0,0,1,0,6,0,0,0,0,1,8,0,0,0,0,1,9,0,0,0,0,1,6,0,0,0,0,1,7,0,0,0,0,1,6,0,0,0,0,1,8,0,0,0,0,1,9,0,0,0,0,1,7,0,0,0,0,1,7,0,0,0,0,1,8,0,0,0,0,1,7,0,0,0,0,1
64,Phnom Penh,Pur SenChey,Chaom Chau,8865846f0bfffff,1759.12,40,70364.79999999999,104.83223936919111,11.550999549832516,11,0,0,0,0,0,8,0,0,0,0,1,10,0,0,0,0,0,7,0,0,0,0,1,11,0,0,0,0,0,10,0,0,0,0,0,13,0,0,0,0,0,8,0,0,0,0,1,8,0,0,0,0,1,9,0,0,0,0,1,9,0,0,0,0,1,10,0,0,0,0,0,10,0,0,0,0,0,9,0,0,0,0,1,10,0,0,0,0,0,11,0,0,0,0,0,0,1,0,0,0,0
65,Phnom Penh,Doun Penh,Phsar Thmei Ti Pir,8865846ae7fffff,2980.09,88,262247.92000000004,104.9275812439492,11.572560642171323,2,0,0,1,0,0,3,0,0,0,1,0,2,0,0,1,0,0,5,0,0,0,0,1,9,0,0,0,0,1,2,0,0,1,0,0,4,0,0,0,1,0,4,0,0,0,1,0,2,0,0,1,0,0,1,0,1,0,0,0,2,0,0,1,0,0,0,1,0,0,0,0,1,0,1,0,0,0,1,0,1,0,0,0,0,1,0,0,0,0,0,1,0,0,0,0,10,0,0,0,0,0
66,Phnom Penh,Pur SenChey,Trapeang Krasang,8865846c29fffff,330.09,32,10562.88,104.79137109193692,11.584036000703977,16,0,0,0,0,0,14,0,0,0,0,0,15,0,0,0,0,0,10,0,0,0,0,0,17,0,0,0,0,0,15,0,0,0,0,0,18,0,0,0,0,0,10,0,0,0,0,0,13,0,0,0,0,0,13,0,0,0,0,0,14,0,0,0,0,0,14,0,0,0,0,0,13,0,0,0,0,0,13,0,0,0,0,0,15,0,0,0,0,0,15,0,0,0,0,0,6,0,0,0,0,1
67,Phnom Penh,Chbar Ampov,Veal Sbov,8865846a4bfffff,590.52,92,54327.84,104.97448690702709,11.51877692731112,5,0,0,0,0,1,7,0,0,0,0,1,5,0,0,0,0,1,13,0,0,0,0,0,7,0,0,0,0,1,6,0,0,0,0,1,3,0,0,0,1,0,12,0,0,0,0,0,8,0,0,0,0,1,8,0,0,0,0,1,6,0,0,0,0,1,8,0,0,0,0,1,9,0,0,0,0,1,8,0,0,0,0,1,7,0,0,0,0,1,7,0,0,0,0,1,15,0,0,0,0,0
68,Phnom Penh,Chraoy Chongvar,Chrouy Changvar,8865846ae5fffff,1549.61,46,71282.06,104.93251142417547,11.569310572685596,2,0,0,1,0,0,3,0,0,0,1,0,2,0,0,1,0,0,6,0,0,0,0,1,9,0,0,0,0,1,1,0,1,0,0,0,3,0,0,0,1,0,5,0,0,0,0,1,2,0,0,1,0,0,1,0,1,0,0,0,2,0,0,1,0,0,1,0,1,0,0,0,2,0,0,1,0,0,1,0,1,0,0,0,0,1,0,0,0,0,0,1,0,0,0,0,10,0,0,0,0,0
69,Phnom Penh,Doun Penh,Phsar Thmei Ti Bei,8865846ae7fffff,3426.92,86,294715.12,104.92705124274744,11.56622644351809,2,0,0,1,0,0,3,0,0,0,1,0,2,0,0,1,0,0,6,0,0,0,0,1,9,0,0,0,0,1,1,0,1,0,0,0,3,0,0,0,1,0,4,0,0,0,1,0,2,0,0,1,0,0,1,0,1,0,0,0,1,0,1,0,0,0,1,0,1,0,0,0,2,0,0,1,0,0,1,0,1,0,0,0,0,1,0,0,0,0,0,1,0,0,0,0,9,0,0,0,0,1
70,Phnom Penh,Saensokh,Phnom Penh Thmei,8865846f05fffff,917.5,74,67895.0,104.84687452638848,11.564555220622315,10,0,0,0,0,0,7,0,0,0,0,1,9,0,0,0,0,1,5,0,0,0,0,1,11,0,0,0,0,0,8,0,0,0,0,1,11,0,0,0,0,0,5,0,0,0,0,1,6,0,0,0,0,1,7,0,0,0,0,1,8,0,0,0,0,1,8,0,0,0,0,1,8,0,0,0,0,1,7,0,0,0,0,1,8,0,0,0,0,1,9,0,0,0,0,1,1,0,1,0,0,0
71,Phnom Penh,Mean Chey,Stueng Mean Chey,88658461a5fffff,2361.99,108,255094.92,104.88264820780272,11.537563062182995,6,0,0,0,0,1,3,0,0,0,1,0,5,0,0,0,0,1,6,0,0,0,0,1,6,0,0,0,0,1,5,0,0,0,0,1,7,0,0,0,0,1,6,0,0,0,0,1,3,0,0,0,1,0,5,0,0,0,0,1,4,0,0,0,1,0,5,0,0,0,0,1,6,0,0,0,0,1,5,0,0,0,0,1,5,0,0,0,0,1,6,0,0,0,0,1,5,0,0,0,0,1
72,Phnom Penh,Chamkar Mon,Tumnob Tuek,8865846a89fffff,1663.6,48,79852.79999999999,104.91114201690094,11.542324495675958,3,0,0,0,1,0,0,1,0,0,0,0,2,0,0,1,0,0,7,0,0,0,0,1,6,0,0,0,0,1,2,0,0,1,0,0,4,0,0,0,1,0,6,0,0,0,0,1,1,0,1,0,0,0,3,0,0,0,1,0,1,0,1,0,0,0,3,0,0,0,1,0,5,0,0,0,0,1,3,0,0,0,1,0,3,0,0,0,1,0,3,0,0,0,1,0,8,0,0,0,0,1
73,Phnom Penh,Dangkao,Prey Veaeng,88658460a9fffff,835.45,90,75190.5,104.84266006546258,11.470127698241088,14,0,0,0,0,0,11,0,0,0,0,0,13,0,0,0,0,0,14,0,0,0,0,0,8,0,0,0,0,1,13,0,0,0,0,0,14,0,0,0,0,0,14,0,0,0,0,0,12,0,0,0,0,0,13,0,0,0,0,0,12,0,0,0,0,0,14,0,0,0,0,0,15,0,0,0,0,0,14,0,0,0,0,0,13,0,0,0,0,0,14,0,0,0,0,0,8,0,0,0,0,1
74,Phnom Penh,Pur SenChey,Samraong Kraom,8865846c29fffff,323.71,54,17480.34,104.78853690452672,11.576864520995482,16,0,0,0,0,0,14,0,0,0,0,0,15,0,0,0,0,0,10,0,0,0,0,0,17,0,0,0,0,0,15,0,0,0,0,0,18,0,0,0,0,0,11,0,0,0,0,0,13,0,0,0,0,0,14,0,0,0,0,0,14,0,0,0,0,0,14,0,0,0,0,0,14,0,0,0,0,0,14,0,0,0,0,0,15,0,0,0,0,0,15,0,0,0,0,0,6,0,0,0,0,1
75,Phnom Penh,Chbar Ampov,Kbal Kaoh,88658478bbfffff,272.11,82,22313.02,104.97214634678552,11.494877012914444,7,0,0,0,0,1,8,0,0,0,0,1,7,0,0,0,0,1,15,0,0,0,0,0,6,0,0,0,0,1,8,0,0,0,0,1,5,0,0,0,0,1,14,0,0,0,0,0,9,0,0,0,0,1,10,0,0,0,0,0,8,0,0,0,0,1,10,0,0,0,0,0,11,0,0,0,0,0,10,0,0,0,0,0,9,0,0,0,0,1,9,0,0,0,0,1,15,0,0,0,0,0
76,Phnom Penh,Pur SenChey,Chaom Chau,8865846f53fffff,1424.97,74,105447.78,104.8250210391021,11.539979470886667,12,0,0,0,0,0,9,0,0,0,0,1,11,0,0,0,0,0,9,0,0,0,0,1,11,0,0,0,0,0,11,0,0,0,0,0,13,0,0,0,0,0,9,0,0,0,0,1,9,0,0,0,0,1,10,0,0,0,0,0,10,0,0,0,0,0,11,0,0,0,0,0,11,0,0,0,0,0,10,0,0,0,0,0,11,0,0,0,0,0,12,0,0,0,0,0,1,0,1,0,0,0
77,Phnom Penh,Chraoy Chongvar,Bak Kaeng,886586a69bfffff,1150.93,108,124300.44,104.92144657039955,11.70007705814211,16,0,0,0,0,0,17,0,0,0,0,0,16,0,0,0,0,0,12,0,0,0,0,0,24,0,0,0,0,0,16,0,0,0,0,0,17,0,0,0,0,0,12,0,0,0,0,0,15,0,0,0,0,0,14,0,0,0,0,0,16,0,0,0,0,0,13,0,0,0,0,0,12,0,0,0,0,0,14,0,0,0,0,0,15,0,0,0,0,0,14,0,0,0,0,0,19,0,0,0,0,0
78,Phnom Penh,Pur SenChey,Trapeang Krasang,8865846f1bfffff,185.59,60,11135.4,104.81734060136208,11.551436316907694,13,0,0,0,0,0,10,0,0,0,0,0,12,0,0,0,0,0,8,0,0,0,0,1,13,0,0,0,0,0,11,0,0,0,0,0,14,0,0,0,0,0,9,0,0,0,0,1,10,0,0,0,0,0,11,0,0,0,0,0,11,0,0,0,0,0,11,0,0,0,0,0,11,0,0,0,0,0,11,0,0,0,0,0,12,0,0,0,0,0,12,0,0,0,0,0,2,0,0,1,0,0
79,Phnom Penh,Doun Penh,Srah Chak,8865846853fffff,1894.05,44,83338.2,104.9220015605188,11.587158158511093,4,0,0,0,1,0,5,0,0,0,0,1,4,0,0,0,1,0,4,0,0,0,1,0,11,0,0,0,0,0,3,0,0,0,1,0,5,0,0,0,0,1,3,0,0,0,1,0,3,0,0,0,1,0,1,0,1,0,0,0,4,0,0,0,1,0,1,0,1,0,0,0,0,1,0,0,0,0,1,0,1,0,0,0,2,0,0,1,0,0,2,0,0,1,0,0,10,0,0,0,0,0
80,Phnom Penh,Mean Chey,Chak Angrae Leu,886584613dfffff,2828.71,46,130120.66,104.92722474801089,11.517712569139986,4,0,0,0,1,0,2,0,0,1,0,0,3,0,0,0,1,0,10,0,0,0,0,0,3,0,0,0,1,0,3,0,0,0,1,0,4,0,0,0,1,0,9,0,0,0,0,1,5,0,0,0,0,1,5,0,0,0,0,1,3,0,0,0,1,0,6,0,0,0,0,1,7,0,0,0,0,1,6,0,0,0,0,1,5,0,0,0,0,1,5,0,0,0,0,1,10,0,0,0,0,0
81,Phnom Penh,Saensokh,Phnom Penh Thmei,8865846ab7fffff,2690.2,56,150651.19999999998,104.8837895361972,11.580757423686531,7,0,0,0,0,1,5,0,0,0,0,1,6,0,0,0,0,1,2,0,0,1,0,0,11,0,0,0,0,0,5,0,0,0,0,1,8,0,0,0,0,1,1,0,1,0,0,0,3,0,0,0,1,0,3,0,0,0,1,0,5,0,0,0,0,1,4,0,0,0,1,0,3,0,0,0,1,0,3,0,0,0,1,0,5,0,0,0,0,1,5,0,0,0,0,1,6,0,0,0,0,1
82,Phnom Penh,Chamkar Mon,Boeng Keng Kang Ti Bei,8865846a8dfffff,2796.74,108,302047.92,104.91574551859436,11.551707383860853,2,0,0,1,0,0,1,0,1,0,0,0,1,0,1,0,0,0,6,0,0,0,0,1,7,0,0,0,0,1,1,0,1,0,0,0,4,0,0,0,1,0,5,0,0,0,0,1,1,0,1,0,0,0,2,0,0,1,0,0,0,1,0,0,0,0,2,0,0,1,0,0,3,0,0,0,1,0,2,0,0,1,0,0,1,0,1,0,0,0,2,0,0,1,0,0,8,0,0,0,0,1
83,Phnom Penh,Pur SenChey,Chaom Chau,8865846e6dfffff,749.63,32,23988.16,104.83707726140165,11.511059963901085,12,0,0,0,0,0,9,0,0,0,0,1,11,0,0,0,0,0,10,0,0,0,0,0,9,0,0,0,0,1,10,0,0,0,0,0,13,0,0,0,0,0,10,0,0,0,0,0,9,0,0,0,0,1,10,0,0,0,0,0,10,0,0,0,0,0,11,0,0,0,0,0,12,0,0,0,0,0,11,0,0,0,0,0,11,0,0,0,0,0,12,0,0,0,0,0,4,0,0,0,1,0
84,Phnom Penh,Tuol Kouk,Boeng Kak Ti Pir,8865846ab7fffff,1419.63,56,79499.28,104.88242929634428,11.578589343636835,7,0,0,0,0,1,5,0,0,0,0,1,6,0,0,0,0,1,2,0,0,1,0,0,11,0,0,0,0,0,5,0,0,0,0,1,8,0,0,0,0,1,1,0,1,0,0,0,3,0,0,0,1,0,4,0,0,0,1,0,5,0,0,0,0,1,4,0,0,0,1,0,4,0,0,0,1,0,3,0,0,0,1,0,5,0,0,0,0,1,5,0,0,0,0,1,5,0,0,0,0,1
85,Phnom Penh,Chamkar Mon,Boeng Keng Kang Ti Muoy,8865846aebfffff,3118.31,114,355487.34,104.92233636048005,11.548156431068604,2,0,0,1,0,0,1,0,1,0,0,0,1,0,1,0,0,0,7,0,0,0,0,1,7,0,0,0,0,1,0,1,0,0,0,0,3,0,0,0,1,0,6,0,0,0,0,1,1,0,1,0,0,0,2,0,0,1,0,0,0,1,0,0,0,0,3,0,0,0,1,0,4,0,0,0,1,0,2,0,0,1,0,0,1,0,1,0,0,0,2,0,0,1,0,0,9,0,0,0,0,1
86,Phnom Penh,Chraoy Chongvar,Chrouy Changvar,8865846819fffff,3184.62,80,254769.6,104.92159494222176,11.589089460191571,4,0,0,0,1,0,5,0,0,0,0,1,4,0,0,0,1,0,4,0,0,0,1,0,11,0,0,0,0,0,4,0,0,0,1,0,6,0,0,0,0,1,3,0,0,0,1,0,3,0,0,0,1,0,2,0,0,1,0,0,4,0,0,0,1,0,1,0,1,0,0,0,0,1,0,0,0,0,1,0,1,0,0,0,2,0,0,1,0,0,2,0,0,1,0,0,10,0,0,0,0,0
87,Phnom Penh,Mean Chey,Boeng Tumpun,8865846addfffff,5009.64,82,410790.48,104.90425118595822,11.53047335707043,4,0,0,0,1,0,1,0,1,0,0,0,3,0,0,0,1,0,7,0,0,0,0,1,5,0,0,0,0,1,3,0,0,0,1,0,5,0,0,0,0,1,7,0,0,0,0,1,3,0,0,0,1,0,4,0,0,0,1,0,3,0,0,0,1,0,5,0,0,0,0,1,6,0,0,0,0,1,4,0,0,0,1,0,4,0,0,0,1,0,5,0,0,0,0,1,7,0,0,0,0,1
88,Phnom Penh,Chbar Ampov,Preaek Pra,8865846125fffff,2970.38,92,273274.96,104.94554683986026,11.52699070823874,2,0,0,1,0,0,3,0,0,0,1,0,2,0,0,1,0,0,10,0,0,0,0,0,5,0,0,0,0,1,3,0,0,0,1,0,2,0,0,1,0,0,9,0,0,0,0,1,5,0,0,0,0,1,5,0,0,0,0,1,3,0,0,0,1,0,6,0,0,0,0,1,7,0,0,0,0,1,5,0,0,0,0,1,4,0,0,0,1,0,4,0,0,0,1,0,12,0,0,0,0,0
89,Phnom Penh,Dangkao,Prey Veaeng,886584619bfffff,199.52,62,12370.24,104.83546492911304,11.494546387286857,13,0,0,0,0,0,10,0,0,0,0,0,12,0,0,0,0,0,12,0,0,0,0,0,8,0,0,0,0,1,11,0,0,0,0,0,13,0,0,0,0,0,12,0,0,0,0,0,10,0,0,0,0,0,12,0,0,0,0,0,11,0,0,0,0,0,13,0,0,0,0,0,13,0,0,0,0,0,12,0,0,0,0,0,12,0,0,0,0,0,13,0,0,0,0,0,6,0,0,0,0,1
90,Phnom Penh,Chbar Ampov,Nirouth,8865846a19fffff,1922.95,86,165373.7,104.95207380709012,11.5293567045819,2,0,0,1,0,0,4,0,0,0,1,0,2,0,0,1,0,0,10,0,0,0,0,0,6,0,0,0,0,1,3,0,0,0,1,0,1,0,1,0,0,0,9,0,0,0,0,1,5,0,0,0,0,1,5,0,0,0,0,1,4,0,0,0,1,0,6,0,0,0,0,1,7,0,0,0,0,1,6,0,0,0,0,1,4,0,0,0,1,0,4,0,0,0,1,0,12,0,0,0,0,0
91,Phnom Penh,Prampir Meakkakra,Veal Vong,8865846a81fffff,2945.35,30,88360.5,104.90558914973155,11.550743973057736,3,0,0,0,1,0,1,0,1,0,0,0,2,0,0,1,0,0,5,0,0,0,0,1,7,0,0,0,0,1,2,0,0,1,0,0,5,0,0,0,0,1,5,0,0,0,0,1,1,0,1,0,0,0,2,0,0,1,0,0,1,0,1,0,0,0,3,0,0,0,1,0,4,0,0,0,1,0,2,0,0,1,0,0,2,0,0,1,0,0,3,0,0,0,1,0,7,0,0,0,0,1
92,Phnom Penh,Chraoy Chongvar,Preaek Lieb,88658469bdfffff,262.65,72,18910.8,104.91329429350183,11.67659456908421,14,0,0,0,0,0,15,0,0,0,0,0,14,0,0,0,0,0,9,0,0,0,0,1,21,0,0,0,0,0,13,0,0,0,0,0,15,0,0,0,0,0,9,0,0,0,0,1,13,0,0,0,0,0,11,0,0,0,0,0,13,0,0,0,0,0,11,0,0,0,0,0,9,0,0,0,0,1,11,0,0,0,0,0,12,0,0,0,0,0,12,0,0,0,0,0,16,0,0,0,0,0
93,Phnom Penh,Saensokh,Khmuonh,8865846d65fffff,468.63,106,49674.78,104.84133587206684,11.626673760236397,13,0,0,0,0,0,12,0,0,0,0,0,13,0,0,0,0,0,5,0,0,0,0,1,17,0,0,0,0,0,12,0,0,0,0,0,15,0,0,0,0,0,6,0,0,0,0,1,10,0,0,0,0,0,10,0,0,0,0,0,12,0,0,0,0,0,10,0,0,0,0,0,9,0,0,0,0,1,10,0,0,0,0,0,11,0,0,0,0,0,11,0,0,0,0,0,8,0,0,0,0,1
94,Phnom Penh,Mean Chey,Boeng Tumpun,8865846135fffff,2368.28,32,75784.96,104.91527119910224,11.520263881008146,4,0,0,0,1,0,2,0,0,1,0,0,3,0,0,0,1,0,9,0,0,0,0,1,4,0,0,0,1,0,3,0,0,0,1,0,4,0,0,0,1,0,8,0,0,0,0,1,4,0,0,0,1,0,5,0,0,0,0,1,3,0,0,0,1,0,6,0,0,0,0,1,7,0,0,0,0,1,5,0,0,0,0,1,5,0,0,0,0,1,5,0,0,0,0,1,9,0,0,0,0,1
95,Phnom Penh,Doun Penh,Phsar Chas,8865846aadfffff,4492.12,86,386322.32,104.92261905648157,11.57602537986537,3,0,0,0,1,0,4,0,0,0,1,0,3,0,0,0,1,0,5,0,0,0,0,1,10,0,0,0,0,0,2,0,0,1,0,0,4,0,0,0,1,0,3,0,0,0,1,0,2,0,0,1,0,0,0,1,0,0,0,0,2,0,0,1,0,0,0,1,0,0,0,0,1,0,1,0,0,0,0,1,0,0,0,0,1,0,1,0,0,0,1,0,1,0,0,0,9,0,0,0,0,1
96,Phnom Penh,Russey Keo,Kilomaetr Lekh Prammuoy,88658468c5fffff,2252.16,36,81077.76,104.89640337084408,11.597178587774309,7,0,0,0,0,1,6,0,0,0,0,1,6,0,0,0,0,1,1,0,1,0,0,0,12,0,0,0,0,0,5,0,0,0,0,1,8,0,0,0,0,1,0,1,0,0,0,0,4,0,0,0,1,0,3,0,0,0,1,0,5,0,0,0,0,1,3,0,0,0,1,0,2,0,0,1,0,0,3,0,0,0,1,0,5,0,0,0,0,1,4,0,0,0,1,0,8,0,0,0,0,1
97,Phnom Penh,Praek Pnov,Ponhea Pon,886580d28dfffff,1371.29,72,98732.88,104.79585226634374,11.67849631192586,21,0,0,0,0,0,19,0,0,0,0,0,20,0,0,0,0,0,12,0,0,0,0,0,25,0,0,0,0,0,19,0,0,0,0,0,22,0,0,0,0,0,14,0,0,0,0,0,18,0,0,0,0,0,18,0,0,0,0,0,19,0,0,0,0,0,17,0,0,0,0,0,16,0,0,0,0,0,17,0,0,0,0,0,19,0,0,0,0,0,19,0,0,0,0,0,15,0,0,0,0,0
98,Phnom Penh,Saensokh,Krang Thnong,8865846d61fffff,3377.07,118,398494.26,104.83531743157744,11.624047073831036,14,0,0,0,0,0,12,0,0,0,0,0,13,0,0,0,0,0,5,0,0,0,0,1,17,0,0,0,0,0,12,0,0,0,0,0,15,0,0,0,0,0,6,0,0,0,0,1,10,0,0,0,0,0,10,0,0,0,0,0,12,0,0,0,0,0,10,0,0,0,0,0,10,0,0,0,0,0,10,0,0,0,0,0,12,0,0,0,0,0,12,0,0,0,0,0,8,0,0,0,0,1
99,Phnom Penh,Chbar Ampov,Chhbar Ampov Ti Muoy,8865846125fffff,1747.76,40,69910.4,104.944907057213,11.52365785145093,3,0,0,0,1,0,3,0,0,0,1,0,3,0,0,0,1,0,10,0,0,0,0,0,5,0,0,0,0,1,3,0,0,0,1,0,2,0,0,1,0,0,9,0,0,0,0,1,5,0,0,0,0,1,5,0,0,0,0,1,3,0,0,0,1,0,6,0,0,0,0,1,7,0,0,0,0,1,6,0,0,0,0,1,4,0,0,0,1,0,5,0,0,0,0,1,12,0,0,0,0,0
100,Phnom Penh,Chraoy Chongvar,Preaek Ta Sek,8865846831fffff,3526.37,102,359689.74,104.9275595163134,11.622945502193708,8,0,0,0,0,1,9,0,0,0,0,1,8,0,0,0,0,1,5,0,0,0,0,1,15,0,0,0,0,0,7,0,0,0,0,1,9,0,0,0,0,1,5,0,0,0,0,1,7,0,0,0,0,1,6,0,0,0,0,1,8,0,0,0,0,1,5,0,0,0,0,1,4,0,0,0,1,0,5,0,0,0,0,1,6,0,0,0,0,1,5,0,0,0,0,1,12,0,0,0,0,0
101,Phnom Penh,Pur SenChey,Kamboul,8865846e23fffff,1604.47,110,176491.7,104.80405690848136,11.534791065146235,15,0,0,0,0,0,12,0,0,0,0,0,14,0,0,0,0,0,11,0,0,0,0,0,13,0,0,0,0,0,13,0,0,0,0,0,16,0,0,0,0,0,11,0,0,0,0,0,11,0,0,0,0,0,13,0,0,0,0,0,13,0,0,0,0,0,13,0,0,0,0,0,13,0,0,0,0,0,13,0,0,0,0,0,13,0,0,0,0,0,14,0,0,0,0,0,4,0,0,0,1,0
102,Phnom Penh,Saensokh,Phnom Penh Thmei,88658468c3fffff,2980.9,90,268281.0,104.89038830449144,11.591845144271526,7,0,0,0,0,1,6,0,0,0,0,1,6,0,0,0,0,1,1,0,1,0,0,0,12,0,0,0,0,0,5,0,0,0,0,1,8,0,0,0,0,1,0,1,0,0,0,0,4,0,0,0,1,0,3,0,0,0,1,0,5,0,0,0,0,1,3,0,0,0,1,0,3,0,0,0,1,0,3,0,0,0,1,0,5,0,0,0,0,1,5,0,0,0,0,1,7,0,0,0,0,1
103,Phnom Penh,Tuol Kouk,Phsar Depou Ti Muoy,8865846a87fffff,2298.21,68,156278.28,104.90422745232031,11.564154498963395,4,0,0,0,1,0,2,0,0,1,0,0,3,0,0,0,1,0,4,0,0,0,1,0,8,0,0,0,0,1,2,0,0,1,0,0,5,0,0,0,0,1,3,0,0,0,1,0,0,1,0,0,0,0,1,0,1,0,0,0,2,0,0,1,0,0,2,0,0,1,0,0,3,0,0,0,1,0,1,0,1,0,0,0,2,0,0,1,0,0,3,0,0,0,1,0,7,0,0,0,0,1
104,Phnom Penh,Chraoy Chongvar,Preaek Lieb,8865846831fffff,3942.02,116,457274.32,104.92868739777668,11.619586317846329,7,0,0,0,0,1,8,0,0,0,0,1,7,0,0,0,0,1,5,0,0,0,0,1,15,0,0,0,0,0,7,0,0,0,0,1,8,0,0,0,0,1,4,0,0,0,1,0,6,0,0,0,0,1,5,0,0,0,0,1,7,0,0,0,0,1,4,0,0,0,1,0,3,0,0,0,1,0,5,0,0,0,0,1,6,0,0,0,0,1,5,0,0,0,0,1,12,0,0,0,0,0
105,Phnom Penh,Tuol Kouk,Boeng Kak Ti Muoy,88658468c1fffff,1831.34,84,153832.56,104.89300008302163,11.592570599756058,7,0,0,0,0,1,6,0,0,0,0,1,6,0,0,0,0,1,1,0,1,0,0,0,12,0,0,0,0,0,5,0,0,0,0,1,8,0,0,0,0,1,0,1,0,0,0,0,4,0,0,0,1,0,3,0,0,0,1,0,5,0,0,0,0,1,3,0,0,0,1,0,2,0,0,1,0,0,3,0,0,0,1,0,5,0,0,0,0,1,4,0,0,0,1,0,7,0,0,0,0,1
106,Phnom Penh,Chbar Ampov,Chhbar Ampov Ti Muoy,8865846a1bfffff,2079.4,76,158034.4,104.94214899357154,11.539834747094504,1,0,1,0,0,0,3,0,0,0,1,0,1,0,1,0,0,0,9,0,0,0,0,1,6,0,0,0,0,1,2,0,0,1,0,0,1,0,1,0,0,0,8,0,0,0,0,1,4,0,0,0,1,0,4,0,0,0,1,0,2,0,0,1,0,0,4,0,0,0,1,0,5,0,0,0,0,1,4,0,0,0,1,0,3,0,0,0,1,0,3,0,0,0,1,0,11,0,0,0,0,0
107,Phnom Penh,Mean Chey,Stueng Mean Chey,8865846a9bfffff,3539.0,106,375134.0,104.87983544786177,11.545316711212942,6,0,0,0,0,1,3,0,0,0,1,0,5,0,0,0,0,1,5,0,0,0,0,1,7,0,0,0,0,1,5,0,0,0,0,1,7,0,0,0,0,1,5,0,0,0,0,1,3,0,0,0,1,0,4,0,0,0,1,0,4,0,0,0,1,0,5,0,0,0,0,1,6,0,0,0,0,1,5,0,0,0,0,1,5,0,0,0,0,1,6,0,0,0,0,1,4,0,0,0,1,0
108,Phnom Penh,Tuol Kouk,Phsar Depou Ti Bei,8865846a87fffff,3286.78,44,144618.32,104.90102338623852,11.564889238887352,4,0,0,0,1,0,3,0,0,0,1,0,3,0,0,0,1,0,4,0,0,0,1,0,9,0,0,0,0,1,3,0,0,0,1,0,6,0,0,0,0,1,3,0,0,0,1,0,1,0,1,0,0,0,1,0,1,0,0,0,2,0,0,1,0,0,2,0,0,1,0,0,3,0,0,0,1,0,1,0,1,0,0,0,2,0,0,1,0,0,3,0,0,0,1,0,7,0,0,0,0,1
109,Phnom Penh,Dangkao,Roluos,8865846019fffff,490.3,54,26476.2,104.87509084332672,11.4277069019515,15,0,0,0,0,0,13,0,0,0,0,0,14,0,0,0,0,0,19,0,0,0,0,0,7,0,0,0,0,1,15,0,0,0,0,0,15,0,0,0,0,0,18,0,0,0,0,0,15,0,0,0,0,0,16,0,0,0,0,0,14,0,0,0,0,0,17,0,0,0,0,0,18,0,0,0,0,0,16,0,0,0,0,0,16,0,0,0,0,0,16,0,0,0,0,0,14,0,0,0,0,0
110,Phnom Penh,Mean Chey,Chak Angrae Leu,8865846ac9fffff,2406.48,52,125136.96,104.9293162652043,11.532155354181096,2,0,0,1,0,0,1,0,1,0,0,0,1,0,1,0,0,0,8,0,0,0,0,1,5,0,0,0,0,1,2,0,0,1,0,0,2,0,0,1,0,0,8,0,0,0,0,1,3,0,0,0,1,0,4,0,0,0,1,0,2,0,0,1,0,0,4,0,0,0,1,0,6,0,0,0,0,1,4,0,0,0,1,0,3,0,0,0,1,0,4,0,0,0,1,0,10,0,0,0,0,0
111,Phnom Penh,Mean Chey,Chak Angrae Kraom,886584612bfffff,1526.27,100,152627.0,104.92956331066816,11.516959929599416,4,0,0,0,1,0,3,0,0,0,1,0,3,0,0,0,1,0,10,0,0,0,0,0,3,0,0,0,1,0,4,0,0,0,1,0,3,0,0,0,1,0,9,0,0,0,0,1,5,0,0,0,0,1,5,0,0,0,0,1,3,0,0,0,1,0,6,0,0,0,0,1,7,0,0,0,0,1,6,0,0,0,0,1,5,0,0,0,0,1,5,0,0,0,0,1,10,0,0,0,0,0
112,Phnom Penh,Chamkar Mon,Tonle Basak,8865846127fffff,1929.06,66,127317.96,104.93191505081514,11.529365178268003,2,0,0,1,0,0,2,0,0,1,0,0,2,0,0,1,0,0,9,0,0,0,0,1,5,0,0,0,0,1,2,0,0,1,0,0,2,0,0,1,0,0,8,0,0,0,0,1,4,0,0,0,1,0,4,0,0,0,1,0,2,0,0,1,0,0,5,0,0,0,0,1,6,0,0,0,0,1,5,0,0,0,0,1,3,0,0,0,1,0,4,0,0,0,1,0,10,0,0,0,0,0
113,Phnom Penh,Chamkar Mon,Tuol Tumpung Ti Muoy,8865846ac3fffff,4130.85,40,165234.0,104.9122642027584,11.532733951743444,3,0,0,0,1,0,0,1,0,0,0,0,2,0,0,1,0,0,8,0,0,0,0,1,5,0,0,0,0,1,2,0,0,1,0,0,4,0,0,0,1,0,7,0,0,0,0,1,3,0,0,0,1,0,4,0,0,0,1,0,2,0,0,1,0,0,4,0,0,0,1,0,6,0,0,0,0,1,4,0,0,0,1,0,3,0,0,0,1,0,4,0,0,0,1,0,8,0,0,0,0,1
114,Phnom Penh,Chamkar Mon,Tuol Tumpung Ti Pir,8865846a89fffff,3622.56,66,239088.96,104.91177771863254,11.54398971921877,3,0,0,0,1,0,0,1,0,0,0,0,2,0,0,1,0,0,6,0,0,0,0,1,6,0,0,0,0,1,1,0,1,0,0,0,4,0,0,0,1,0,5,0,0,0,0,1,1,0,1,0,0,0,2,0,0,1,0,0,1,0,1,0,0,0,3,0,0,0,1,0,4,0,0,0,1,0,3,0,0,0,1,0,2,0,0,1,0,0,3,0,0,0,1,0,8,0,0,0,0,1
115,Phnom Penh,Chbar Ampov,Kbal Kaoh,8865847993fffff,1138.23,66,75123.18000000001,104.99796356160968,11.536590382705493,6,0,0,0,0,1,9,0,0,0,0,1,7,0,0,0,0,1,14,0,0,0,0,0,10,0,0,0,0,0,7,0,0,0,0,1,4,0,0,0,1,0,13,0,0,0,0,0,9,0,0,0,0,1,9,0,0,0,0,1,8,0,0,0,0,1,9,0,0,0,0,1,10,0,0,0,0,0,9,0,0,0,0,1,8,0,0,0,0,1,8,0,0,0,0,1,17,0,0,0,0,0
116,Phnom Penh,Doun Penh,Srah Chak,8865846aa9fffff,3154.84,110,347032.4,104.91762651406508,11.564991871349378,3,0,0,0,1,0,2,0,0,1,0,0,2,0,0,1,0,0,5,0,0,0,0,1,8,0,0,0,0,1,1,0,1,0,0,0,4,0,0,0,1,0,4,0,0,0,1,0,1,0,1,0,0,0,0,1,0,0,0,0,1,0,1,0,0,0,1,0,1,0,0,0,2,0,0,1,0,0,0,1,0,0,0,0,1,0,1,0,0,0,1,0,1,0,0,0,8,0,0,0,0,1
117,Phnom Penh,Doun Penh,Chey Chummeah,8865846ae5fffff,2344.71,36,84409.56,104.93597943416786,11.57103887538504,2,0,0,1,0,0,4,0,0,0,1,0,2,0,0,1,0,0,6,0,0,0,0,1,9,0,0,0,0,1,2,0,0,1,0,0,3,0,0,0,1,0,5,0,0,0,0,1,3,0,0,0,1,0,1,0,1,0,0,0,2,0,0,1,0,0,1,0,1,0,0,0,2,0,0,1,0,0,2,0,0,1,0,0,1,0,1,0,0,0,0,1,0,0,0,0,10,0,0,0,0,0
118,Phnom Penh,Dangkao,Preaek Kampues,8865846005fffff,325.24,60,19514.4,104.89968169982428,11.457575306929662,11,0,0,0,0,0,9,0,0,0,0,1,10,0,0,0,0,0,15,0,0,0,0,0,3,0,0,0,1,0,11,0,0,0,0,0,11,0,0,0,0,0,15,0,0,0,0,0,11,0,0,0,0,0,12,0,0,0,0,0,10,0,0,0,0,0,13,0,0,0,0,0,14,0,0,0,0,0,12,0,0,0,0,0,12,0,0,0,0,0,12,0,0,0,0,0,12,0,0,0,0,0
119,Phnom Penh,Mean Chey,Chak Angrae Kraom,8865846157fffff,1965.66,114,224085.24,104.9160481830354,11.483009754933107,8,0,0,0,0,1,6,0,0,0,0,1,7,0,0,0,0,1,13,0,0,0,0,0,0,1,0,0,0,0,7,0,0,0,0,1,7,0,0,0,0,1,12,0,0,0,0,0,8,0,0,0,0,1,9,0,0,0,0,1,7,0,0,0,0,1,10,0,0,0,0,0,11,0,0,0,0,0,10,0,0,0,0,0,9,0,0,0,0,1,9,0,0,0,0,1,11,0,0,0,0,0
120,Phnom Penh,Tuol Kouk,Boeng Kak Ti Pir,8865846aa3fffff,3255.12,86,279940.32,104.90609398795452,11.57812347257616,4,0,0,0,1,0,4,0,0,0,1,0,4,0,0,0,1,0,3,0,0,0,1,0,10,0,0,0,0,0,3,0,0,0,1,0,6,0,0,0,0,1,2,0,0,1,0,0,2,0,0,1,0,0,1,0,1,0,0,0,3,0,0,0,1,0,1,0,1,0,0,0,1,0,1,0,0,0,1,0,1,0,0,0,2,0,0,1,0,0,2,0,0,1,0,0,8,0,0,0,0,1
121,Phnom Penh,Prampir Meakkakra,Mittapheap,8865846a85fffff,2132.88,102,217553.76,104.90776221327415,11.55923118833545,3,0,0,0,1,0,2,0,0,1,0,0,2,0,0,1,0,0,5,0,0,0,0,1,8,0,0,0,0,1,2,0,0,1,0,0,5,0,0,0,0,1,4,0,0,0,1,0,0,1,0,0,0,0,1,0,1,0,0,0,1,0,1,0,0,0,2,0,0,1,0,0,3,0,0,0,1,0,1,0,1,0,0,0,2,0,0,1,0,0,2,0,0,1,0,0,7,0,0,0,0,1
122,Phnom Penh,Chbar Ampov,Preaek Pra,8865846127fffff,818.21,30,24546.300000000003,104.9316546629104,11.529649180980424,2,0,0,1,0,0,2,0,0,1,0,0,2,0,0,1,0,0,9,0,0,0,0,1,5,0,0,0,0,1,2,0,0,1,0,0,2,0,0,1,0,0,8,0,0,0,0,1,4,0,0,0,1,0,4,0,0,0,1,0,2,0,0,1,0,0,5,0,0,0,0,1,6,0,0,0,0,1,5,0,0,0,0,1,3,0,0,0,1,0,4,0,0,0,1,0,10,0,0,0,0,0
123,Phnom Penh,Doun Penh,Phsar Thmei Ti Muoy,8865846aa9fffff,4396.57,50,219828.5,104.9167246867276,11.563698373996024,3,0,0,0,1,0,2,0,0,1,0,0,2,0,0,1,0,0,5,0,0,0,0,1,8,0,0,0,0,1,1,0,1,0,0,0,4,0,0,0,1,0,4,0,0,0,1,0,0,1,0,0,0,0,0,1,0,0,0,0,1,0,1,0,0,0,1,0,1,0,0,0,2,0,0,1,0,0,1,0,1,0,0,0,1,0,1,0,0,0,1,0,1,0,0,0,8,0,0,0,0,1
124,Phnom Penh,Chbar Ampov,Preaek Pra,886584616dfffff,1428.24,118,168532.32,104.96240383743142,11.49704963580998,6,0,0,0,0,1,7,0,0,0,0,1,6,0,0,0,0,1,14,0,0,0,0,0,5,0,0,0,0,1,7,0,0,0,0,1,5,0,0,0,0,1,13,0,0,0,0,0,9,0,0,0,0,1,9,0,0,0,0,1,7,0,0,0,0,1,9,0,0,0,0,1,11,0,0,0,0,0,9,0,0,0,0,1,8,0,0,0,0,1,8,0,0,0,0,1,14,0,0,0,0,0
125,Phnom Penh,Chraoy Chongvar,Bak Kaeng,886586a693fffff,715.29,110,78681.9,104.91756867720537,11.704286111009743,17,0,0,0,0,0,18,0,0,0,0,0,17,0,0,0,0,0,12,0,0,0,0,0,24,0,0,0,0,0,16,0,0,0,0,0,18,0,0,0,0,0,12,0,0,0,0,0,16,0,0,0,0,0,14,0,0,0,0,0,17,0,0,0,0,0,14,0,0,0,0,0,13,0,0,0,0,0,14,0,0,0,0,0,15,0,0,0,0,0,15,0,0,0,0,0,19,0,0,0,0,0
126,Phnom Penh,Tuol Kouk,Tuek L'ak Ti Bei,8865846ab9fffff,1974.03,68,134234.04,104.88950572146965,11.567875271041602,6,0,0,0,0,1,4,0,0,0,1,0,5,0,0,0,0,1,3,0,0,0,1,0,9,0,0,0,0,1,4,0,0,0,1,0,7,0,0,0,0,1,2,0,0,1,0,0,2,0,0,1,0,0,3,0,0,0,1,0,4,0,0,0,1,0,3,0,0,0,1,0,3,0,0,0,1,0,3,0,0,0,1,0,4,0,0,0,1,0,4,0,0,0,1,0,6,0,0,0,0,1
127,Phnom Penh,Prampir Meakkakra,Mittapheap,8865846aa9fffff,3836.2,64,245516.8,104.9139322945514,11.572310984771732,3,0,0,0,1,0,3,0,0,0,1,0,3,0,0,0,1,0,4,0,0,0,1,0,9,0,0,0,0,1,2,0,0,1,0,0,5,0,0,0,0,1,3,0,0,0,1,0,1,0,1,0,0,0,0,1,0,0,0,0,2,0,0,1,0,0,0,1,0,0,0,0,1,0,1,0,0,0,0,1,0,0,0,0,1,0,1,0,0,0,1,0,1,0,0,0,8,0,0,0,0,1
128,Phnom Penh,Chamkar Mon,Tonle Basak,8865846ac9fffff,902.95,50,45147.5,104.92482781515372,11.523563477903355,3,0,0,0,1,0,2,0,0,1,0,0,2,0,0,1,0,0,9,0,0,0,0,1,4,0,0,0,1,0,3,0,0,0,1,0,3,0,0,0,1,0,8,0,0,0,0,1,4,0,0,0,1,0,5,0,0,0,0,1,3,0,0,0,1,0,5,0,0,0,0,1,7,0,0,0,0,1,5,0,0,0,0,1,4,0,0,0,1,0,5,0,0,0,0,1,9,0,0,0,0,1
129,Phnom Penh,Dangkao,Cheung Aek,8865846027fffff,446.71,98,43777.58,104.8956804639672,11.474816188122574,9,0,0,0,0,1,7,0,0,0,0,1,9,0,0,0,0,1,13,0,0,0,0,0,2,0,0,1,0,0,9,0,0,0,0,1,9,0,0,0,0,1,13,0,0,0,0,0,9,0,0,0,0,1,10,0,0,0,0,0,8,0,0,0,0,1,11,0,0,0,0,0,12,0,0,0,0,0,11,0,0,0,0,0,10,0,0,0,0,0,11,0,0,0,0,0,10,0,0,0,0,0
130,Phnom Penh,Tuol Kouk,Tuek L'ak Ti Bei,8865846a9dfffff,3404.77,88,299619.76,104.89034059759128,11.54367349513196,5,0,0,0,0,1,2,0,0,1,0,0,4,0,0,0,1,0,6,0,0,0,0,1,7,0,0,0,0,1,4,0,0,0,1,0,6,0,0,0,0,1,5,0,0,0,0,1,2,0,0,1,0,0,4,0,0,0,1,0,3,0,0,0,1,0,4,0,0,0,1,0,5,0,0,0,0,1,4,0,0,0,1,0,4,0,0,0,1,0,5,0,0,0,0,1,5,0,0,0,0,1
131,Phnom Penh,Pur SenChey,Kantaok,8865846e6bfffff,2017.27,40,80690.8,104.8227531730684,11.504446651365582,14,0,0,0,0,0,10,0,0,0,0,0,12,0,0,0,0,0,12,0,0,0,0,0,10,0,0,0,0,0,12,0,0,0,0,0,14,0,0,0,0,0,12,0,0,0,0,0,11,0,0,0,0,0,12,0,0,0,0,0,12,0,0,0,0,0,13,0,0,0,0,0,13,0,0,0,0,0,12,0,0,0,0,0,13,0,0,0,0,0,13,0,0,0,0,0,5,0,0,0,0,1
132,Phnom Penh,Chraoy Chongvar,Preaek Lieb,8865846983fffff,2371.96,46,109110.16,104.9113596585152,11.6642490375929,12,0,0,0,0,0,13,0,0,0,0,0,13,0,0,0,0,0,7,0,0,0,0,1,20,0,0,0,0,0,12,0,0,0,0,0,14,0,0,0,0,0,8,0,0,0,0,1,11,0,0,0,0,0,10,0,0,0,0,0,12,0,0,0,0,0,9,0,0,0,0,1,8,0,0,0,0,1,10,0,0,0,0,0,11,0,0,0,0,0,10,0,0,0,0,0,15,0,0,0,0,0
133,Phnom Penh,Tuol Kouk,Boeng Kak Ti Muoy,88658468cbfffff,1639.24,116,190151.84,104.8862280257858,11.586072047572337,7,0,0,0,0,1,5,0,0,0,0,1,6,0,0,0,0,1,1,0,1,0,0,0,11,0,0,0,0,0,5,0,0,0,0,1,8,0,0,0,0,1,1,0,1,0,0,0,3,0,0,0,1,0,3,0,0,0,1,0,5,0,0,0,0,1,3,0,0,0,1,0,3,0,0,0,1,0,3,0,0,0,1,0,5,0,0,0,0,1,5,0,0,0,0,1,6,0,0,0,0,1
134,Phnom Penh,Chbar Ampov,Preaek Aeng,8865846a49fffff,342.01,86,29412.86,104.98496317056755,11.521926965159874,5,0,0,0,0,1,8,0,0,0,0,1,6,0,0,0,0,1,14,0,0,0,0,0,8,0,0,0,0,1,7,0,0,0,0,1,4,0,0,0,1,0,12,0,0,0,0,0,9,0,0,0,0,1,8,0,0,0,0,1,7,0,0,0,0,1,9,0,0,0,0,1,10,0,0,0,0,0,9,0,0,0,0,1,7,0,0,0,0,1,7,0,0,0,0,1,16,0,0,0,0,0
135,Phnom Penh,Prampir Meakkakra,Ou Ruessei Ti Pir,8865846ae3fffff,2793.38,66,184363.08,104.9226311294548,11.556403123577896,2,0,0,1,0,0,1,0,1,0,0,0,1,0,1,0,0,0,6,0,0,0,0,1,8,0,0,0,0,1,0,1,0,0,0,0,3,0,0,0,1,0,5,0,0,0,0,1,1,0,1,0,0,0,1,0,1,0,0,0,0,1,0,0,0,0,2,0,0,1,0,0,3,0,0,0,1,0,1,0,1,0,0,0,1,0,1,0,0,0,1,0,1,0,0,0,9,0,0,0,0,1
136,Phnom Penh,Chraoy Chongvar,Chrouy Changvar,886584681dfffff,4321.18,30,129635.4,104.92946627602586,11.595555300095358,5,0,0,0,0,1,6,0,0,0,0,1,5,0,0,0,0,1,5,0,0,0,0,1,12,0,0,0,0,0,4,0,0,0,1,0,6,0,0,0,0,1,4,0,0,0,1,0,4,0,0,0,1,0,3,0,0,0,1,0,4,0,0,0,1,0,2,0,0,1,0,0,1,0,1,0,0,0,2,0,0,1,0,0,3,0,0,0,1,0,2,0,0,1,0,0,11,0,0,0,0,0
137,Phnom Penh,Russey Keo,Ruessei Kaev,88658468edfffff,1917.12,100,191712.0,104.9076625021327,11.615104688542718,8,0,0,0,0,1,8,0,0,0,0,1,7,0,0,0,0,1,3,0,0,0,1,0,14,0,0,0,0,0,7,0,0,0,0,1,9,0,0,0,0,1,2,0,0,1,0,0,6,0,0,0,0,1,5,0,0,0,0,1,7,0,0,0,0,1,4,0,0,0,1,0,3,0,0,0,1,0,4,0,0,0,1,0,6,0,0,0,0,1,5,0,0,0,0,1,10,0,0,0,0,0
138,Phnom Penh,Chraoy Chongvar,Bak Kaeng,886586a699fffff,334.03,74,24718.22,104.93688189101417,11.702917874683994,16,0,0,0,0,0,18,0,0,0,0,0,17,0,0,0,0,0,13,0,0,0,0,0,24,0,0,0,0,0,16,0,0,0,0,0,17,0,0,0,0,0,13,0,0,0,0,0,16,0,0,0,0,0,14,0,0,0,0,0,16,0,0,0,0,0,14,0,0,0,0,0,13,0,0,0,0,0,14,0,0,0,0,0,15,0,0,0,0,0,14,0,0,0,0,0,20,0,0,0,0,0
139,Phnom Penh,Tuol Kouk,Phsar Daeum Kor,8865846a85fffff,2215.65,72,159526.80000000002,104.9054384965297,11.563397177238574,4,0,0,0,1,0,2,0,0,1,0,0,3,0,0,0,1,0,4,0,0,0,1,0,8,0,0,0,0,1,2,0,0,1,0,0,5,0,0,0,0,1,3,0,0,0,1,0,0,1,0,0,0,0,1,0,1,0,0,0,2,0,0,1,0,0,2,0,0,1,0,0,3,0,0,0,1,0,1,0,1,0,0,0,2,0,0,1,0,0,2,0,0,1,0,0,7,0,0,0,0,1
140,Phnom Penh,Chbar Ampov,Nirouth,8865846a51fffff,1257.03,34,42739.02,104.96526006972702,11.52284646163379,4,0,0,0,1,0,5,0,0,0,0,1,4,0,0,0,1,0,12,0,0,0,0,0,6,0,0,0,0,1,5,0,0,0,0,1,2,0,0,1,0,0,11,0,0,0,0,0,7,0,0,0,0,1,7,0,0,0,0,1,5,0,0,0,0,1,7,0,0,0,0,1,8,0,0,0,0,1,7,0,0,0,0,1,6,0,0,0,0,1,6,0,0,0,0,1,14,0,0,0,0,0
141,Phnom Penh,Doun Penh,Boeng Reang,8865846aa9fffff,3321.82,52,172734.64,104.91877747800504,11.564030976915287,2,0,0,1,0,0,2,0,0,1,0,0,2,0,0,1,0,0,5,0,0,0,0,1,8,0,0,0,0,1,1,0,1,0,0,0,4,0,0,0,1,0,4,0,0,0,1,0,1,0,1,0,0,0,0,1,0,0,0,0,1,0,1,0,0,0,1,0,1,0,0,0,2,0,0,1,0,0,1,0,1,0,0,0,1,0,1,0,0,0,1,0,1,0,0,0,8,0,0,0,0,1
142,Phnom Penh,Pur SenChey,Kakab,8865846f0dfffff,1196.5,104,124436.0,104.85025070791458,11.563976696968416,10,0,0,0,0,0,7,0,0,0,0,1,9,0,0,0,0,1,5,0,0,0,0,1,11,0,0,0,0,0,8,0,0,0,0,1,11,0,0,0,0,0,5,0,0,0,0,1,6,0,0,0,0,1,7,0,0,0,0,1,8,0,0,0,0,1,7,0,0,0,0,1,7,0,0,0,0,1,7,0,0,0,0,1,8,0,0,0,0,1,8,0,0,0,0,1,2,0,0,1,0,0
143,Phnom Penh,Tuol Kouk,Tuek L'ak Ti Bei,8865846a83fffff,2290.5,110,251955.0,104.89106705435292,11.552916220256057,5,0,0,0,0,1,2,0,0,1,0,0,4,0,0,0,1,0,5,0,0,0,0,1,8,0,0,0,0,1,3,0,0,0,1,0,6,0,0,0,0,1,4,0,0,0,1,0,2,0,0,1,0,0,3,0,0,0,1,0,3,0,0,0,1,0,4,0,0,0,1,0,4,0,0,0,1,0,3,0,0,0,1,0,4,0,0,0,1,0,4,0,0,0,1,0,5,0,0,0,0,1
144,Phnom Penh,Pur SenChey,Chaom Chau,8865846f55fffff,444.24,68,30208.32,104.842792967052,11.544608598754476,10,0,0,0,0,0,7,0,0,0,0,1,9,0,0,0,0,1,7,0,0,0,0,1,10,0,0,0,0,0,9,0,0,0,0,1,11,0,0,0,0,0,7,0,0,0,0,1,7,0,0,0,0,1,8,0,0,0,0,1,8,0,0,0,0,1,9,0,0,0,0,1,9,0,0,0,0,1,8,0,0,0,0,1,9,0,0,0,0,1,10,0,0,0,0,0,0,1,0,0,0,0
145,Phnom Penh,Mean Chey,Stueng Mean Chey,8865846a8bfffff,1902.14,66,125541.24,104.9021166341846,11.547450345956747,4,0,0,0,1,0,1,0,1,0,0,0,3,0,0,0,1,0,6,0,0,0,0,1,7,0,0,0,0,1,2,0,0,1,0,0,5,0,0,0,0,1,5,0,0,0,0,1,1,0,1,0,0,0,3,0,0,0,1,0,2,0,0,1,0,0,3,0,0,0,1,0,4,0,0,0,1,0,3,0,0,0,1,0,3,0,0,0,1,0,4,0,0,0,1,0,7,0,0,0,0,1
146,Phnom Penh,Prampir Meakkakra,Veal Vong,8865846a85fffff,2091.15,84,175656.6,104.90543733745352,11.559649924280407,4,0,0,0,1,0,2,0,0,1,0,0,3,0,0,0,1,0,5,0,0,0,0,1,8,0,0,0,0,1,2,0,0,1,0,0,5,0,0,0,0,1,4,0,0,0,1,0,0,1,0,0,0,0,1,0,1,0,0,0,2,0,0,1,0,0,2,0,0,1,0,0,3,0,0,0,1,0,1,0,1,0,0,0,2,0,0,1,0,0,3,0,0,0,1,0,7,0,0,0,0,1
147,Phnom Penh,Russey Keo,Kilomaetr Lekh Prammuoy,88658468e7fffff,1607.11,98,157496.78,104.89854923578532,11.625131376163706,9,0,0,0,0,1,9,0,0,0,0,1,9,0,0,0,0,1,3,0,0,0,1,0,15,0,0,0,0,0,8,0,0,0,0,1,10,0,0,0,0,0,3,0,0,0,1,0,7,0,0,0,0,1,6,0,0,0,0,1,8,0,0,0,0,1,5,0,0,0,0,1,4,0,0,0,1,0,6,0,0,0,0,1,7,0,0,0,0,1,7,0,0,0,0,1,10,0,0,0,0,0
148,Phnom Penh,Chamkar Mon,Tuol Svay Prey Ti Pir,8865846a81fffff,3138.52,98,307574.96,104.90708854514956,11.556348710800671,3,0,0,0,1,0,1,0,1,0,0,0,2,0,0,1,0,0,5,0,0,0,0,1,8,0,0,0,0,1,2,0,0,1,0,0,5,0,0,0,0,1,4,0,0,0,1,0,0,1,0,0,0,0,1,0,1,0,0,0,1,0,1,0,0,0,2,0,0,1,0,0,3,0,0,0,1,0,2,0,0,1,0,0,2,0,0,1,0,0,3,0,0,0,1,0,7,0,0,0,0,1
149,Phnom Penh,Chraoy Chongvar,Bak Kaeng,886586a691fffff,813.74,52,42314.48,104.92606353343884,11.711644587440428,17,0,0,0,0,0,19,0,0,0,0,0,18,0,0,0,0,0,13,0,0,0,0,0,25,0,0,0,0,0,17,0,0,0,0,0,18,0,0,0,0,0,13,0,0,0,0,0,16,0,0,0,0,0,15,0,0,0,0,0,17,0,0,0,0,0,15,0,0,0,0,0,13,0,0,0,0,0,15,0,0,0,0,0,16,0,0,0,0,0,15,0,0,0,0,0,20,0,0,0,0,0
150,Phnom Penh,Pur SenChey,Kantaok,8865846e29fffff,462.76,98,45350.48,104.81801077168016,11.52458966105268,13,0,0,0,0,0,10,0,0,0,0,0,12,0,0,0,0,0,10,0,0,0,0,0,11,0,0,0,0,0,12,0,0,0,0,0,14,0,0,0,0,0,11,0,0,0,0,0,10,0,0,0,0,0,12,0,0,0,0,0,11,0,0,0,0,0,12,0,0,0,0,0,13,0,0,0,0,0,12,0,0,0,0,0,12,0,0,0,0,0,13,0,0,0,0,0,3,0,0,0,1,0
151,Phnom Penh,Dangkao,Prey Sa,886584618dfffff,2850.15,34,96905.1,104.87561899788952,11.500740478359372,9,0,0,0,0,1,6,0,0,0,0,1,8,0,0,0,0,1,10,0,0,0,0,0,4,0,0,0,1,0,8,0,0,0,0,1,9,0,0,0,0,1,10,0,0,0,0,0,7,0,0,0,0,1,8,0,0,0,0,1,7,0,0,0,0,1,9,0,0,0,0,1,10,0,0,0,0,0,9,0,0,0,0,1,9,0,0,0,0,1,9,0,0,0,0,1,6,0,0,0,0,1
152,Phnom Penh,Chraoy Chongvar,Preaek Ta Sek,88658469d7fffff,1615.53,108,174477.24,104.90388915754588,11.645558029081782,11,0,0,0,0,0,11,0,0,0,0,0,11,0,0,0,0,0,5,0,0,0,0,1,17,0,0,0,0,0,10,0,0,0,0,0,12,0,0,0,0,0,5,0,0,0,0,1,9,0,0,0,0,1,8,0,0,0,0,1,10,0,0,0,0,0,7,0,0,0,0,1,6,0,0,0,0,1,8,0,0,0,0,1,9,0,0,0,0,1,8,0,0,0,0,1,12,0,0,0,0,0
153,Phnom Penh,Saensokh,Phnom Penh Thmei,88658468cbfffff,1722.4,90,155016.0,104.88732452075436,11.585798402681943,7,0,0,0,0,1,5,0,0,0,0,1,6,0,0,0,0,1,1,0,1,0,0,0,11,0,0,0,0,0,5,0,0,0,0,1,8,0,0,0,0,1,1,0,1,0,0,0,3,0,0,0,1,0,3,0,0,0,1,0,5,0,0,0,0,1,3,0,0,0,1,0,3,0,0,0,1,0,3,0,0,0,1,0,5,0,0,0,0,1,5,0,0,0,0,1,6,0,0,0,0,1
154,Phnom Penh,Chbar Ampov,Kbal Kaoh,886584616dfffff,1768.82,58,102591.56,104.96019070949272,11.497395932526551,6,0,0,0,0,1,6,0,0,0,0,1,6,0,0,0,0,1,14,0,0,0,0,0,5,0,0,0,0,1,7,0,0,0,0,1,5,0,0,0,0,1,13,0,0,0,0,0,8,0,0,0,0,1,9,0,0,0,0,1,7,0,0,0,0,1,9,0,0,0,0,1,10,0,0,0,0,0,9,0,0,0,0,1,8,0,0,0,0,1,8,0,0,0,0,1,14,0,0,0,0,0
155,Phnom Penh,Pur SenChey,Chaom Chau,88658461abfffff,2370.7,36,85345.2,104.86831584149964,11.515467927837255,8,0,0,0,0,1,5,0,0,0,0,1,7,0,0,0,0,1,9,0,0,0,0,1,6,0,0,0,0,1,7,0,0,0,0,1,9,0,0,0,0,1,9,0,0,0,0,1,6,0,0,0,0,1,8,0,0,0,0,1,7,0,0,0,0,1,8,0,0,0,0,1,9,0,0,0,0,1,8,0,0,0,0,1,8,0,0,0,0,1,9,0,0,0,0,1,5,0,0,0,0,1
156,Phnom Penh,Mean Chey,Chak Angrae Kraom,886584613dfffff,3089.61,64,197735.04,104.92818423152566,11.508780123844014,4,0,0,0,1,0,3,0,0,0,1,0,4,0,0,0,1,0,11,0,0,0,0,0,3,0,0,0,1,0,4,0,0,0,1,0,4,0,0,0,1,0,10,0,0,0,0,0,6,0,0,0,0,1,6,0,0,0,0,1,4,0,0,0,1,0,7,0,0,0,0,1,8,0,0,0,0,1,7,0,0,0,0,1,6,0,0,0,0,1,6,0,0,0,0,1,10,0,0,0,0,0
157,Phnom Penh,Dangkao,Dangkao,8865846113fffff,2229.47,82,182816.54,104.90119484338103,11.494831894970185,7,0,0,0,0,1,5,0,0,0,0,1,6,0,0,0,0,1,11,0,0,0,0,0,1,0,1,0,0,0,7,0,0,0,0,1,7,0,0,0,0,1,11,0,0,0,0,0,7,0,0,0,0,1,8,0,0,0,0,1,6,0,0,0,0,1,9,0,0,0,0,1,10,0,0,0,0,0,8,0,0,0,0,1,8,0,0,0,0,1,8,0,0,0,0,1,9,0,0,0,0,1
158,Phnom Penh,Chraoy Chongvar,Chrouy Changvar,8865846839fffff,1138.54,56,63758.24,104.9321271776028,11.612499531484248,6,0,0,0,0,1,8,0,0,0,0,1,7,0,0,0,0,1,5,0,0,0,0,1,14,0,0,0,0,0,6,0,0,0,0,1,7,0,0,0,0,1,4,0,0,0,1,0,6,0,0,0,0,1,5,0,0,0,0,1,6,0,0,0,0,1,4,0,0,0,1,0,3,0,0,0,1,0,4,0,0,0,1,0,5,0,0,0,0,1,4,0,0,0,1,0,12,0,0,0,0,0
159,Phnom Penh,Pur SenChey,Kakab,8865846f01fffff,1355.66,118,159967.88,104.84126797729422,11.56581363048665,11,0,0,0,0,0,8,0,0,0,0,1,10,0,0,0,0,0,5,0,0,0,0,1,12,0,0,0,0,0,9,0,0,0,0,1,12,0,0,0,0,0,6,0,0,0,0,1,7,0,0,0,0,1,8,0,0,0,0,1,9,0,0,0,0,1,8,0,0,0,0,1,8,0,0,0,0,1,8,0,0,0,0,1,9,0,0,0,0,1,9,0,0,0,0,1,1,0,1,0,0,0
160,Phnom Penh,Russey Keo,Tuol Sangke,88658468c1fffff,2098.12,110,230793.2,104.8983637157263,11.598807784652628,7,0,0,0,0,1,6,0,0,0,0,1,6,0,0,0,0,1,1,0,1,0,0,0,12,0,0,0,0,0,5,0,0,0,0,1,8,0,0,0,0,1,0,1,0,0,0,0,4,0,0,0,1,0,3,0,0,0,1,0,5,0,0,0,0,1,3,0,0,0,1,0,2,0,0,1,0,0,3,0,0,0,1,0,5,0,0,0,0,1,4,0,0,0,1,0,8,0,0,0,0,1
161,Phnom Penh,Chbar Ampov,Preaek Aeng,8865846a4bfffff,610.49,68,41513.32,104.9745289849514,11.5258068701772,4,0,0,0,1,0,6,0,0,0,0,1,5,0,0,0,0,1,12,0,0,0,0,0,7,0,0,0,0,1,5,0,0,0,0,1,3,0,0,0,1,0,11,0,0,0,0,0,7,0,0,0,0,1,7,0,0,0,0,1,6,0,0,0,0,1,8,0,0,0,0,1,9,0,0,0,0,1,8,0,0,0,0,1,6,0,0,0,0,1,6,0,0,0,0,1,15,0,0,0,0,0
162,Phnom Penh,Chbar Ampov,Nirouth,886584612dfffff,4259.89,72,306712.08,104.94820691196738,11.52055355865064,3,0,0,0,1,0,4,0,0,0,1,0,3,0,0,0,1,0,11,0,0,0,0,0,5,0,0,0,0,1,4,0,0,0,1,0,2,0,0,1,0,0,10,0,0,0,0,0,6,0,0,0,0,1,6,0,0,0,0,1,4,0,0,0,1,0,6,0,0,0,0,1,8,0,0,0,0,1,6,0,0,0,0,1,5,0,0,0,0,1,5,0,0,0,0,1,12,0,0,0,0,0
163,Phnom Penh,Chbar Ampov,Veal Sbov,8865846a51fffff,3832.19,50,191609.5,104.96412005449544,11.523225205186389,3,0,0,0,1,0,5,0,0,0,0,1,4,0,0,0,1,0,12,0,0,0,0,0,6,0,0,0,0,1,5,0,0,0,0,1,2,0,0,1,0,0,11,0,0,0,0,0,7,0,0,0,0,1,7,0,0,0,0,1,5,0,0,0,0,1,7,0,0,0,0,1,8,0,0,0,0,1,7,0,0,0,0,1,5,0,0,0,0,1,6,0,0,0,0,1,14,0,0,0,0,0
164,Phnom Penh,Mean Chey,Chak Angrae Leu,8865846135fffff,3453.34,82,283173.88,104.91621527418413,11.5214171072276,4,0,0,0,1,0,2,0,0,1,0,0,3,0,0,0,1,0,9,0,0,0,0,1,4,0,0,0,1,0,3,0,0,0,1,0,4,0,0,0,1,0,8,0,0,0,0,1,4,0,0,0,1,0,5,0,0,0,0,1,3,0,0,0,1,0,6,0,0,0,0,1,7,0,0,0,0,1,5,0,0,0,0,1,4,0,0,0,1,0,5,0,0,0,0,1,9,0,0,0,0,1
165,Phnom Penh,Chraoy Chongvar,Preaek Lieb,8865846815fffff,1821.51,66,120219.66,104.92400443968454,11.605623240533854,6,0,0,0,0,1,7,0,0,0,0,1,6,0,0,0,0,1,4,0,0,0,1,0,13,0,0,0,0,0,5,0,0,0,0,1,7,0,0,0,0,1,3,0,0,0,1,0,5,0,0,0,0,1,4,0,0,0,1,0,6,0,0,0,0,1,3,0,0,0,1,0,2,0,0,1,0,0,3,0,0,0,1,0,4,0,0,0,1,0,4,0,0,0,1,0,11,0,0,0,0,0
166,Phnom Penh,Tuol Kouk,Boeng Salang,8865846a87fffff,4840.11,86,416249.46,104.9041850169235,11.562511741810916,4,0,0,0,1,0,2,0,0,1,0,0,3,0,0,0,1,0,4,0,0,0,1,0,8,0,0,0,0,1,2,0,0,1,0,0,5,0,0,0,0,1,3,0,0,0,1,0,0,1,0,0,0,0,1,0,1,0,0,0,2,0,0,1,0,0,2,0,0,1,0,0,3,0,0,0,1,0,1,0,1,0,0,0,2,0,0,1,0,0,3,0,0,0,1,0,7,0,0,0,0,1
167,Phnom Penh,Dangkao,Cheung Aek,88658461c5fffff,772.19,86,66408.34000000001,104.89077488115892,11.493625328271865,8,0,0,0,0,1,5,0,0,0,0,1,7,0,0,0,0,1,11,0,0,0,0,0,2,0,0,1,0,0,7,0,0,0,0,1,8,0,0,0,0,1,11,0,0,0,0,0,7,0,0,0,0,1,8,0,0,0,0,1,7,0,0,0,0,1,9,0,0,0,0,1,10,0,0,0,0,0,9,0,0,0,0,1,8,0,0,0,0,1,9,0,0,0,0,1,8,0,0,0,0,1
168,Phnom Penh,Russey Keo,Kilomaetr Lekh Prammuoy,88658468e9fffff,1337.54,54,72227.16,104.90228043075236,11.6126664449836,8,0,0,0,0,1,8,0,0,0,0,1,7,0,0,0,0,1,2,0,0,1,0,0,14,0,0,0,0,0,7,0,0,0,0,1,9,0,0,0,0,1,2,0,0,1,0,0,5,0,0,0,0,1,5,0,0,0,0,1,7,0,0,0,0,1,4,0,0,0,1,0,3,0,0,0,1,0,4,0,0,0,1,0,6,0,0,0,0,1,5,0,0,0,0,1,9,0,0,0,0,1
169,Phnom Penh,Chbar Ampov,Veal Sbov,8865846a09fffff,7087.31,50,354365.5,104.97041181539986,11.540231024877334,3,0,0,0,1,0,6,0,0,0,0,1,4,0,0,0,1,0,11,0,0,0,0,0,8,0,0,0,0,1,4,0,0,0,1,0,1,0,1,0,0,0,10,0,0,0,0,0,6,0,0,0,0,1,6,0,0,0,0,1,5,0,0,0,0,1,6,0,0,0,0,1,7,0,0,0,0,1,6,0,0,0,0,1,5,0,0,0,0,1,5,0,0,0,0,1,14,0,0,0,0,0
170,Phnom Penh,Tuol Kouk,Boeng Kak Ti Pir,88658468cbfffff,1895.97,66,125134.02,104.89278657496811,11.585783058776208,6,0,0,0,0,1,5,0,0,0,0,1,6,0,0,0,0,1,1,0,1,0,0,0,11,0,0,0,0,0,5,0,0,0,0,1,8,0,0,0,0,1,0,1,0,0,0,0,3,0,0,0,1,0,3,0,0,0,1,0,5,0,0,0,0,1,3,0,0,0,1,0,2,0,0,1,0,0,2,0,0,1,0,0,4,0,0,0,1,0,4,0,0,0,1,0,7,0,0,0,0,1
171,Phnom Penh,Saensokh,Phnom Penh Thmei,88658468ddfffff,2469.95,92,227235.4,104.88039618691668,11.586176428744258,7,0,0,0,0,1,6,0,0,0,0,1,7,0,0,0,0,1,1,0,1,0,0,0,11,0,0,0,0,0,6,0,0,0,0,1,9,0,0,0,0,1,1,0,1,0,0,0,4,0,0,0,1,0,4,0,0,0,1,0,6,0,0,0,0,1,4,0,0,0,1,0,4,0,0,0,1,0,4,0,0,0,1,0,5,0,0,0,0,1,5,0,0,0,0,1,6,0,0,0,0,1
172,Phnom Penh,Chamkar Mon,Boeng Keng Kang Ti Bei,8865846aebfffff,5363.18,74,396875.32,104.92285694699112,11.55562653719228,2,0,0,1,0,0,1,0,1,0,0,0,1,0,1,0,0,0,6,0,0,0,0,1,7,0,0,0,0,1,0,1,0,0,0,0,3,0,0,0,1,0,5,0,0,0,0,1,1,0,1,0,0,0,1,0,1,0,0,0,0,1,0,0,0,0,2,0,0,1,0,0,3,0,0,0,1,0,2,0,0,1,0,0,1,0,1,0,0,0,1,0,1,0,0,0,9,0,0,0,0,1
173,Phnom Penh,Saensokh,Phnom Penh Thmei,88658468d5fffff,1749.57,112,195951.84,104.88009564538406,11.599444427432276,8,0,0,0,0,1,7,0,0,0,0,1,8,0,0,0,0,1,0,1,0,0,0,0,13,0,0,0,0,0,7,0,0,0,0,1,10,0,0,0,0,0,1,0,1,0,0,0,5,0,0,0,0,1,5,0,0,0,0,1,7,0,0,0,0,1,5,0,0,0,0,1,4,0,0,0,1,0,4,0,0,0,1,0,6,0,0,0,0,1,6,0,0,0,0,1,7,0,0,0,0,1
174,Phnom Penh,Russey Keo,Tuol Sangke,8865846819fffff,3263.03,56,182729.68,104.92102303146515,11.588154742770044,4,0,0,0,1,0,5,0,0,0,0,1,4,0,0,0,1,0,4,0,0,0,1,0,11,0,0,0,0,0,3,0,0,0,1,0,6,0,0,0,0,1,3,0,0,0,1,0,3,0,0,0,1,0,2,0,0,1,0,0,4,0,0,0,1,0,1,0,1,0,0,0,0,1,0,0,0,0,1,0,1,0,0,0,2,0,0,1,0,0,2,0,0,1,0,0,10,0,0,0,0,0
175,Phnom Penh,Dangkao,Cheung Aek,8865846113fffff,2001.71,88,176150.48,104.89607925165508,11.496723017963289,7,0,0,0,0,1,5,0,0,0,0,1,6,0,0,0,0,1,11,0,0,0,0,0,2,0,0,1,0,0,7,0,0,0,0,1,8,0,0,0,0,1,10,0,0,0,0,0,7,0,0,0,0,1,8,0,0,0,0,1,6,0,0,0,0,1,9,0,0,0,0,1,10,0,0,0,0,0,8,0,0,0,0,1,8,0,0,0,0,1,8,0,0,0,0,1,8,0,0,0,0,1
176,Phnom Penh,Pur SenChey,Kamboul,8865846e31fffff,175.97,102,17948.94,104.7907458787402,11.525617785045494,16,0,0,0,0,0,13,0,0,0,0,0,15,0,0,0,0,0,12,0,0,0,0,0,14,0,0,0,0,0,15,0,0,0,0,0,17,0,0,0,0,0,13,0,0,0,0,0,13,0,0,0,0,0,14,0,0,0,0,0,14,0,0,0,0,0,15,0,0,0,0,0,15,0,0,0,0,0,14,0,0,0,0,0,15,0,0,0,0,0,16,0,0,0,0,0,5,0,0,0,0,1
177,Phnom Penh,Praek Pnov,Kouk Roka,8865846f35fffff,536.51,36,19314.36,104.83476971662556,11.582530593866348,12,0,0,0,0,0,9,0,0,0,0,1,11,0,0,0,0,0,5,0,0,0,0,1,14,0,0,0,0,0,10,0,0,0,0,0,13,0,0,0,0,0,6,0,0,0,0,1,8,0,0,0,0,1,9,0,0,0,0,1,10,0,0,0,0,0,9,0,0,0,0,1,9,0,0,0,0,1,9,0,0,0,0,1,10,0,0,0,0,0,10,0,0,0,0,0,3,0,0,0,1,0
178,Phnom Penh,Prampir Meakkakra,Ou Ruessei Ti Pir,8865846a85fffff,2250.84,102,229585.68,104.91014633481092,11.563355354080002,3,0,0,0,1,0,2,0,0,1,0,0,2,0,0,1,0,0,4,0,0,0,1,0,8,0,0,0,0,1,2,0,0,1,0,0,5,0,0,0,0,1,3,0,0,0,1,0,0,1,0,0,0,0,1,0,1,0,0,0,1,0,1,0,0,0,1,0,1,0,0,0,2,0,0,1,0,0,1,0,1,0,0,0,1,0,1,0,0,0,2,0,0,1,0,0,8,0,0,0,0,1
179,Phnom Penh,Saensokh,Krang Thnong,8865846f23fffff,2172.84,110,239012.4,104.83956354045122,11.586783253447267,11,0,0,0,0,0,9,0,0,0,0,1,10,0,0,0,0,0,4,0,0,0,1,0,14,0,0,0,0,0,10,0,0,0,0,0,13,0,0,0,0,0,5,0,0,0,0,1,8,0,0,0,0,1,8,0,0,0,0,1,9,0,0,0,0,1,8,0,0,0,0,1,8,0,0,0,0,1,8,0,0,0,0,1,10,0,0,0,0,0,10,0,0,0,0,0,4,0,0,0,1,0
180,Phnom Penh,Praek Pnov,Kouk Roka,8865846d05fffff,2088.34,104,217187.36,104.82033201378144,11.625412829808266,15,0,0,0,0,0,13,0,0,0,0,0,14,0,0,0,0,0,7,0,0,0,0,1,18,0,0,0,0,0,14,0,0,0,0,0,17,0,0,0,0,0,8,0,0,0,0,1,12,0,0,0,0,0,12,0,0,0,0,0,13,0,0,0,0,0,12,0,0,0,0,0,11,0,0,0,0,0,12,0,0,0,0,0,13,0,0,0,0,0,13,0,0,0,0,0,8,0,0,0,0,1
181,Phnom Penh,Chbar Ampov,Nirouth,8865846a1bfffff,2469.97,54,133378.37999999998,104.94370463475812,11.533844842961145,1,0,1,0,0,0,3,0,0,0,1,0,2,0,0,1,0,0,9,0,0,0,0,1,6,0,0,0,0,1,2,0,0,1,0,0,1,0,1,0,0,0,8,0,0,0,0,1,4,0,0,0,1,0,4,0,0,0,1,0,2,0,0,1,0,0,5,0,0,0,0,1,6,0,0,0,0,1,5,0,0,0,0,1,3,0,0,0,1,0,4,0,0,0,1,0,11,0,0,0,0,0
182,Phnom Penh,Doun Penh,Boeng Reang,8865846ae1fffff,2907.46,82,238411.72,104.92439937005508,11.555851302998995,1,0,1,0,0,0,1,0,1,0,0,0,1,0,1,0,0,0,6,0,0,0,0,1,8,0,0,0,0,1,0,1,0,0,0,0,3,0,0,0,1,0,5,0,0,0,0,1,1,0,1,0,0,0,1,0,1,0,0,0,0,1,0,0,0,0,2,0,0,1,0,0,3,0,0,0,1,0,2,0,0,1,0,0,0,1,0,0,0,0,1,0,1,0,0,0,9,0,0,0,0,1
183,Phnom Penh,Dangkao,Tien,88658460c5fffff,104.31,98,10222.38,104.85279243399955,11.438358155513525,15,0,0,0,0,0,13,0,0,0,0,0,14,0,0,0,0,0,18,0,0,0,0,0,8,0,0,0,0,1,15,0,0,0,0,0,16,0,0,0,0,0,17,0,0,0,0,0,14,0,0,0,0,0,16,0,0,0,0,0,14,0,0,0,0,0,17,0,0,0,0,0,18,0,0,0,0,0,16,0,0,0,0,0,16,0,0,0,0,0,16,0,0,0,0,0,12,0,0,0,0,0
184,Phnom Penh,Pur SenChey,Snaor,8865846c29fffff,365.97,70,25617.9,104.7915205005648,11.582609804321631,16,0,0,0,0,0,14,0,0,0,0,0,15,0,0,0,0,0,10,0,0,0,0,0,17,0,0,0,0,0,15,0,0,0,0,0,18,0,0,0,0,0,10,0,0,0,0,0,13,0,0,0,0,0,13,0,0,0,0,0,14,0,0,0,0,0,14,0,0,0,0,0,13,0,0,0,0,0,13,0,0,0,0,0,15,0,0,0,0,0,15,0,0,0,0,0,6,0,0,0,0,1
185,Phnom Penh,Chraoy Chongvar,Preaek Ta Sek,88658469b9fffff,2219.6,112,248595.2,104.89916181288068,11.675699811077672,14,0,0,0,0,0,15,0,0,0,0,0,14,0,0,0,0,0,8,0,0,0,0,1,21,0,0,0,0,0,13,0,0,0,0,0,15,0,0,0,0,0,9,0,0,0,0,1,12,0,0,0,0,0,11,0,0,0,0,0,14,0,0,0,0,0,11,0,0,0,0,0,10,0,0,0,0,0,11,0,0,0,0,0,12,0,0,0,0,0,12,0,0,0,0,0,15,0,0,0,0,0
186,Phnom Penh,Chraoy Chongvar,Chrouy Changvar,8865846851fffff,2329.41,30,69882.29999999999,104.93118204920158,11.5790995218958,3,0,0,0,1,0,4,0,0,0,1,0,3,0,0,0,1,0,5,0,0,0,0,1,10,0,0,0,0,0,2,0,0,1,0,0,4,0,0,0,1,0,4,0,0,0,1,0,3,0,0,0,1,0,1,0,1,0,0,0,3,0,0,0,1,0,1,0,1,0,0,0,1,0,1,0,0,0,1,0,1,0,0,0,1,0,1,0,0,0,1,0,1,0,0,0,10,0,0,0,0,0
187,Phnom Penh,Saensokh,Tuek Thla,8865846ab9fffff,1983.61,94,186459.34,104.89328171784686,11.566237522588798,5,0,0,0,0,1,3,0,0,0,1,0,4,0,0,0,1,0,3,0,0,0,1,0,9,0,0,0,0,1,3,0,0,0,1,0,6,0,0,0,0,1,3,0,0,0,1,0,1,0,1,0,0,0,2,0,0,1,0,0,3,0,0,0,1,0,3,0,0,0,1,0,3,0,0,0,1,0,2,0,0,1,0,0,3,0,0,0,1,0,4,0,0,0,1,0,6,0,0,0,0,1
188,Phnom Penh,Chbar Ampov,Veal Sbov,88658478bbfffff,307.92,64,19706.88,104.96962490733328,11.504163882240755,6,0,0,0,0,1,7,0,0,0,0,1,6,0,0,0,0,1,14,0,0,0,0,0,6,0,0,0,0,1,7,0,0,0,0,1,4,0,0,0,1,0,13,0,0,0,0,0,8,0,0,0,0,1,9,0,0,0,0,1,7,0,0,0,0,1,9,0,0,0,0,1,10,0,0,0,0,0,9,0,0,0,0,1,8,0,0,0,0,1,8,0,0,0,0,1,15,0,0,0,0,0
189,Phnom Penh,Pur SenChey,Kamboul,8865846c5dfffff,364.19,52,18937.88,104.77761423839884,11.541300850474997,17,0,0,0,0,0,14,0,0,0,0,0,16,0,0,0,0,0,13,0,0,0,0,0,16,0,0,0,0,0,16,0,0,0,0,0,19,0,0,0,0,0,13,0,0,0,0,0,14,0,0,0,0,0,15,0,0,0,0,0,15,0,0,0,0,0,16,0,0,0,0,0,16,0,0,0,0,0,15,0,0,0,0,0,16,0,0,0,0,0,17,0,0,0,0,0,6,0,0,0,0,1
190,Phnom Penh,Pur SenChey,Snaor,8865846c2bfffff,280.74,58,16282.92,104.78103646419828,11.58258390971858,17,0,0,0,0,0,15,0,0,0,0,0,16,0,0,0,0,0,11,0,0,0,0,0,18,0,0,0,0,0,16,0,0,0,0,0,19,0,0,0,0,0,12,0,0,0,0,0,14,0,0,0,0,0,15,0,0,0,0,0,15,0,0,0,0,0,15,0,0,0,0,0,15,0,0,0,0,0,14,0,0,0,0,0,16,0,0,0,0,0,16,0,0,0,0,0,7,0,0,0,0,1
191,Phnom Penh,Pur SenChey,Kakab,8865846f1dfffff,1242.91,108,134234.28,104.82888737240172,11.555253044638253,12,0,0,0,0,0,9,0,0,0,0,1,11,0,0,0,0,0,7,0,0,0,0,1,12,0,0,0,0,0,10,0,0,0,0,0,13,0,0,0,0,0,8,0,0,0,0,1,8,0,0,0,0,1,9,0,0,0,0,1,10,0,0,0,0,0,10,0,0,0,0,0,10,0,0,0,0,0,9,0,0,0,0,1,10,0,0,0,0,0,11,0,0,0,0,0,1,0,1,0,0,0
192,Phnom Penh,Saensokh,Tuek Thla,8865846f4dfffff,2840.33,78,221545.74,104.8715690865066,11.545541550379296,7,0,0,0,0,1,4,0,0,0,1,0,6,0,0,0,0,1,6,0,0,0,0,1,8,0,0,0,0,1,6,0,0,0,0,1,8,0,0,0,0,1,5,0,0,0,0,1,4,0,0,0,1,0,5,0,0,0,0,1,5,0,0,0,0,1,6,0,0,0,0,1,6,0,0,0,0,1,5,0,0,0,0,1,6,0,0,0,0,1,7,0,0,0,0,1,3,0,0,0,1,0
193,Phnom Penh,Dangkao,Dangkao,8865846137fffff,1735.95,54,93741.3,104.91286545127672,11.526321725091377,4,0,0,0,1,0,1,0,1,0,0,0,3,0,0,0,1,0,8,0,0,0,0,1,4,0,0,0,1,0,3,0,0,0,1,0,4,0,0,0,1,0,7,0,0,0,0,1,3,0,0,0,1,0,4,0,0,0,1,0,2,0,0,1,0,0,5,0,0,0,0,1,6,0,0,0,0,1,5,0,0,0,0,1,4,0,0,0,1,0,5,0,0,0,0,1,8,0,0,0,0,1
194,Phnom Penh,Chbar Ampov,Preaek Aeng,8865847993fffff,1231.04,56,68938.23999999999,104.99872495193546,11.539844680420902,6,0,0,0,0,1,9,0,0,0,0,1,7,0,0,0,0,1,14,0,0,0,0,0,11,0,0,0,0,0,7,0,0,0,0,1,5,0,0,0,0,1,13,0,0,0,0,0,9,0,0,0,0,1,9,0,0,0,0,1,8,0,0,0,0,1,9,0,0,0,0,1,10,0,0,0,0,0,9,0,0,0,0,1,8,0,0,0,0,1,8,0,0,0,0,1,17,0,0,0,0,0
195,Phnom Penh,Saensokh,Phnom Penh Thmei,8865846f27fffff,1968.09,60,118085.4,104.84204406919024,11.591661180898717,11,0,0,0,0,0,9,0,0,0,0,1,10,0,0,0,0,0,4,0,0,0,1,0,14,0,0,0,0,0,10,0,0,0,0,0,13,0,0,0,0,0,5,0,0,0,0,1,8,0,0,0,0,1,8,0,0,0,0,1,9,0,0,0,0,1,8,0,0,0,0,1,8,0,0,0,0,1,8,0,0,0,0,1,9,0,0,0,0,1,10,0,0,0,0,0,4,0,0,0,1,0
196,Phnom Penh,Chamkar Mon,Phsar Daeum Thkov,8865846ac3fffff,1616.34,98,158401.31999999998,104.9112929477842,11.540095329243986,3,0,0,0,1,0,0,1,0,0,0,0,2,0,0,1,0,0,7,0,0,0,0,1,6,0,0,0,0,1,2,0,0,1,0,0,4,0,0,0,1,0,6,0,0,0,0,1,2,0,0,1,0,0,3,0,0,0,1,0,1,0,1,0,0,0,4,0,0,0,1,0,5,0,0,0,0,1,3,0,0,0,1,0,3,0,0,0,1,0,3,0,0,0,1,0,8,0,0,0,0,1
197,Phnom Penh,Russey Keo,Chrang Chamreh Ti Pir,88658468a9fffff,1269.13,114,144680.82,104.89172854589246,11.62352259271735,9,0,0,0,0,1,9,0,0,0,0,1,9,0,0,0,0,1,2,0,0,1,0,0,15,0,0,0,0,0,8,0,0,0,0,1,11,0,0,0,0,0,3,0,0,0,1,0,7,0,0,0,0,1,6,0,0,0,0,1,8,0,0,0,0,1,6,0,0,0,0,1,5,0,0,0,0,1,6,0,0,0,0,1,7,0,0,0,0,1,7,0,0,0,0,1,10,0,0,0,0,0
198,Phnom Penh,Dangkao,Cheung Aek,88658461cdfffff,1020.05,78,79563.9,104.89093116718269,11.489612003240667,8,0,0,0,0,1,6,0,0,0,0,1,7,0,0,0,0,1,12,0,0,0,0,0,2,0,0,1,0,0,8,0,0,0,0,1,9,0,0,0,0,1,11,0,0,0,0,0,8,0,0,0,0,1,9,0,0,0,0,1,7,0,0,0,0,1,10,0,0,0,0,0,11,0,0,0,0,0,9,0,0,0,0,1,9,0,0,0,0,1,9,0,0,0,0,1,8,0,0,0,0,1
199,Phnom Penh,Chamkar Mon,Boeng Keng Kang Ti Muoy,8865846ae1fffff,3647.79,94,342892.26,104.92829604666396,11.556909750120507,1,0,1,0,0,0,2,0,0,1,0,0,1,0,1,0,0,0,6,0,0,0,0,1,8,0,0,0,0,1,0,1,0,0,0,0,3,0,0,0,1,0,5,0,0,0,0,1,2,0,0,1,0,0,1,0,1,0,0,0,0,1,0,0,0,0,2,0,0,1,0,0,3,0,0,0,1,0,2,0,0,1,0,0,0,1,0,0,0,0,1,0,1,0,0,0,9,0,0,0,0,1
200,Phnom Penh,Chbar Ampov,Preaek Pra,886584616bfffff,411.72,106,43642.32,104.94951847120744,11.496377949795695,6,0,0,0,0,1,6,0,0,0,0,1,6,0,0,0,0,1,13,0,0,0,0,0,3,0,0,0,1,0,6,0,0,0,0,1,5,0,0,0,0,1,12,0,0,0,0,0,8,0,0,0,0,1,8,0,0,0,0,1,6,0,0,0,0,1,9,0,0,0,0,1,10,0,0,0,0,0,9,0,0,0,0,1,7,0,0,0,0,1,8,0,0,0,0,1,13,0,0,0,0,0
201,Phnom Penh,Chbar Ampov,Veal Sbov,88658478b7fffff,1669.57,56,93495.92,104.97662328064524,11.51740183056896,5,0,0,0,0,1,7,0,0,0,0,1,5,0,0,0,0,1,13,0,0,0,0,0,7,0,0,0,0,1,6,0,0,0,0,1,3,0,0,0,1,0,12,0,0,0,0,0,8,0,0,0,0,1,8,0,0,0,0,1,6,0,0,0,0,1,8,0,0,0,0,1,9,0,0,0,0,1,8,0,0,0,0,1,7,0,0,0,0,1,7,0,0,0,0,1,15,0,0,0,0,0
202,Phnom Penh,Pur SenChey,Kamboul,8865846c59fffff,441.12,108,47640.96,104.772190644806,11.538724254026798,18,0,0,0,0,0,15,0,0,0,0,0,17,0,0,0,0,0,13,0,0,0,0,0,16,0,0,0,0,0,16,0,0,0,0,0,19,0,0,0,0,0,14,0,0,0,0,0,15,0,0,0,0,0,16,0,0,0,0,0,16,0,0,0,0,0,16,0,0,0,0,0,16,0,0,0,0,0,16,0,0,0,0,0,17,0,0,0,0,0,17,0,0,0,0,0,7,0,0,0,0,1
203,Phnom Penh,Mean Chey,Chak Angrae Kraom,886584610dfffff,1684.24,84,141476.16,104.94006786893856,11.500516556674873,5,0,0,0,0,1,5,0,0,0,0,1,5,0,0,0,0,1,12,0,0,0,0,0,3,0,0,0,1,0,6,0,0,0,0,1,5,0,0,0,0,1,11,0,0,0,0,0,7,0,0,0,0,1,8,0,0,0,0,1,5,0,0,0,0,1,8,0,0,0,0,1,9,0,0,0,0,1,8,0,0,0,0,1,7,0,0,0,0,1,7,0,0,0,0,1,12,0,0,0,0,0
204,Phnom Penh,Prampir Meakkakra,Boeng Proluet,8865846ae3fffff,2902.18,88,255391.84,104.92371617616163,11.564349110411468,2,0,0,1,0,0,2,0,0,1,0,0,2,0,0,1,0,0,5,0,0,0,0,1,8,0,0,0,0,1,1,0,1,0,0,0,3,0,0,0,1,0,4,0,0,0,1,0,1,0,1,0,0,0,0,1,0,0,0,0,1,0,1,0,0,0,1,0,1,0,0,0,2,0,0,1,0,0,1,0,1,0,0,0,0,1,0,0,0,0,1,0,1,0,0,0,9,0,0,0,0,1
205,Phnom Penh,Doun Penh,Phsar Kandal Ti Muoy,8865846ae7fffff,3336.38,62,206855.56,104.92476603057558,11.56933083630248,2,0,0,1,0,0,3,0,0,0,1,0,2,0,0,1,0,0,5,0,0,0,0,1,9,0,0,0,0,1,1,0,1,0,0,0,4,0,0,0,1,0,4,0,0,0,1,0,1,0,1,0,0,0,0,1,0,0,0,0,2,0,0,1,0,0,0,1,0,0,0,0,2,0,0,1,0,0,0,1,0,0,0,0,0,1,0,0,0,0,0,1,0,0,0,0,9,0,0,0,0,1
206,Phnom Penh,Saensokh,Phnom Penh Thmei,88658468d7fffff,1160.05,48,55682.4,104.8688554239578,11.597171128607211,9,0,0,0,0,1,7,0,0,0,0,1,8,0,0,0,0,1,1,0,1,0,0,0,13,0,0,0,0,0,8,0,0,0,0,1,10,0,0,0,0,0,2,0,0,1,0,0,6,0,0,0,0,1,6,0,0,0,0,1,7,0,0,0,0,1,6,0,0,0,0,1,5,0,0,0,0,1,5,0,0,0,0,1,7,0,0,0,0,1,7,0,0,0,0,1,6,0,0,0,0,1
207,Phnom Penh,Pur SenChey,Chaom Chau,8865846f57fffff,926.36,60,55581.6,104.82692330169672,11.547147172120816,12,0,0,0,0,0,9,0,0,0,0,1,11,0,0,0,0,0,8,0,0,0,0,1,11,0,0,0,0,0,10,0,0,0,0,0,13,0,0,0,0,0,8,0,0,0,0,1,9,0,0,0,0,1,10,0,0,0,0,0,10,0,0,0,0,0,10,0,0,0,0,0,10,0,0,0,0,0,10,0,0,0,0,0,11,0,0,0,0,0,11,0,0,0,0,0,1,0,1,0,0,0
208,Phnom Penh,Chamkar Mon,Olympic,8865846a8dfffff,4451.57,106,471866.42,104.91284291723782,11.55045203124454,3,0,0,0,1,0,1,0,1,0,0,0,2,0,0,1,0,0,6,0,0,0,0,1,7,0,0,0,0,1,1,0,1,0,0,0,4,0,0,0,1,0,5,0,0,0,0,1,1,0,1,0,0,0,2,0,0,1,0,0,1,0,1,0,0,0,2,0,0,1,0,0,4,0,0,0,1,0,2,0,0,1,0,0,2,0,0,1,0,0,2,0,0,1,0,0,8,0,0,0,0,1
209,Phnom Penh,Praek Pnov,Preaek Phnov,886580d243fffff,2106.61,112,235940.32,104.86399581831267,11.654448818303583,14,0,0,0,0,0,13,0,0,0,0,0,13,0,0,0,0,0,6,0,0,0,0,1,19,0,0,0,0,0,13,0,0,0,0,0,15,0,0,0,0,0,7,0,0,0,0,1,11,0,0,0,0,0,11,0,0,0,0,0,13,0,0,0,0,0,10,0,0,0,0,0,9,0,0,0,0,1,10,0,0,0,0,0,12,0,0,0,0,0,11,0,0,0,0,0,11,0,0,0,0,0
210,Phnom Penh,Saensokh,Khmuonh,8865846d61fffff,2433.93,68,165507.24,104.84356524710304,11.627810578212452,13,0,0,0,0,0,12,0,0,0,0,0,13,0,0,0,0,0,5,0,0,0,0,1,17,0,0,0,0,0,12,0,0,0,0,0,15,0,0,0,0,0,6,0,0,0,0,1,10,0,0,0,0,0,10,0,0,0,0,0,12,0,0,0,0,0,10,0,0,0,0,0,9,0,0,0,0,1,10,0,0,0,0,0,11,0,0,0,0,0,11,0,0,0,0,0,8,0,0,0,0,1
211,Phnom Penh,Chraoy Chongvar,Kaoh Dach,886584698dfffff,1119.16,112,125345.92,104.9252495035858,11.66397047455969,12,0,0,0,0,0,13,0,0,0,0,0,12,0,0,0,0,0,8,0,0,0,0,1,20,0,0,0,0,0,12,0,0,0,0,0,13,0,0,0,0,0,8,0,0,0,0,1,11,0,0,0,0,0,10,0,0,0,0,0,12,0,0,0,0,0,9,0,0,0,0,1,8,0,0,0,0,1,10,0,0,0,0,0,11,0,0,0,0,0,10,0,0,0,0,0,15,0,0,0,0,0
212,Phnom Penh,Saensokh,Phnom Penh Thmei,8865846899fffff,3323.92,102,339039.84,104.85479754043428,11.597466017536336,10,0,0,0,0,0,9,0,0,0,0,1,10,0,0,0,0,0,3,0,0,0,1,0,14,0,0,0,0,0,9,0,0,0,0,1,12,0,0,0,0,0,3,0,0,0,1,0,7,0,0,0,0,1,7,0,0,0,0,1,9,0,0,0,0,1,7,0,0,0,0,1,7,0,0,0,0,1,7,0,0,0,0,1,8,0,0,0,0,1,8,0,0,0,0,1,5,0,0,0,0,1
213,Phnom Penh,Russey Keo,Chrang Chamreh Ti Pir,88658468e7fffff,1258.15,94,118266.1,104.903011414246,11.622273560802492,8,0,0,0,0,1,9,0,0,0,0,1,8,0,0,0,0,1,3,0,0,0,1,0,15,0,0,0,0,0,8,0,0,0,0,1,10,0,0,0,0,0,3,0,0,0,1,0,7,0,0,0,0,1,6,0,0,0,0,1,8,0,0,0,0,1,5,0,0,0,0,1,4,0,0,0,1,0,5,0,0,0,0,1,7,0,0,0,0,1,6,0,0,0,0,1,10,0,0,0,0,0
214,Phnom Penh,Pur SenChey,Chaom Chau,8865846f4bfffff,685.84,66,45265.44,104.8509672011473,11.534428018205846,10,0,0,0,0,0,6,0,0,0,0,1,8,0,0,0,0,1,7,0,0,0,0,1,8,0,0,0,0,1,8,0,0,0,0,1,11,0,0,0,0,0,7,0,0,0,0,1,6,0,0,0,0,1,8,0,0,0,0,1,8,0,0,0,0,1,8,0,0,0,0,1,9,0,0,0,0,1,8,0,0,0,0,1,9,0,0,0,0,1,9,0,0,0,0,1,2,0,0,1,0,0
215,Phnom Penh,Pur SenChey,Samraong Kraom,8865846f1bfffff,225.47,84,18939.48,104.80847395181468,11.551952789303138,14,0,0,0,0,0,11,0,0,0,0,0,13,0,0,0,0,0,9,0,0,0,0,1,13,0,0,0,0,0,12,0,0,0,0,0,15,0,0,0,0,0,10,0,0,0,0,0,11,0,0,0,0,0,12,0,0,0,0,0,12,0,0,0,0,0,12,0,0,0,0,0,12,0,0,0,0,0,12,0,0,0,0,0,13,0,0,0,0,0,13,0,0,0,0,0,3,0,0,0,1,0
216,Phnom Penh,Doun Penh,Phsar Thmei Ti Muoy,8865846ae7fffff,5765.26,84,484281.84,104.92921332469622,11.570145279464668,2,0,0,1,0,0,3,0,0,0,1,0,2,0,0,1,0,0,5,0,0,0,0,1,9,0,0,0,0,1,1,0,1,0,0,0,3,0,0,0,1,0,4,0,0,0,1,0,2,0,0,1,0,0,1,0,1,0,0,0,2,0,0,1,0,0,1,0,1,0,0,0,2,0,0,1,0,0,1,0,1,0,0,0,0,1,0,0,0,0,0,1,0,0,0,0,10,0,0,0,0,0
217,Phnom Penh,Saensokh,Phnom Penh Thmei,8865846f29fffff,2705.37,38,102804.06,104.85532486386369,11.57490525097677,9,0,0,0,0,1,7,0,0,0,0,1,8,0,0,0,0,1,3,0,0,0,1,0,12,0,0,0,0,0,8,0,0,0,0,1,11,0,0,0,0,0,4,0,0,0,1,0,6,0,0,0,0,1,6,0,0,0,0,1,7,0,0,0,0,1,7,0,0,0,0,1,7,0,0,0,0,1,6,0,0,0,0,1,8,0,0,0,0,1,8,0,0,0,0,1,3,0,0,0,1,0
218,Phnom Penh,Mean Chey,Boeng Tumpun,8865846ad1fffff,3283.94,50,164197.0,104.90032164133872,11.528037739632348,5,0,0,0,0,1,2,0,0,1,0,0,4,0,0,0,1,0,8,0,0,0,0,1,5,0,0,0,0,1,4,0,0,0,1,0,6,0,0,0,0,1,7,0,0,0,0,1,3,0,0,0,1,0,5,0,0,0,0,1,3,0,0,0,1,0,5,0,0,0,0,1,6,0,0,0,0,1,5,0,0,0,0,1,5,0,0,0,0,1,5,0,0,0,0,1,7,0,0,0,0,1
219,Phnom Penh,Mean Chey,Chak Angrae Leu,8865846127fffff,1858.1,42,78040.2,104.93614245722458,11.528102386778349,2,0,0,1,0,0,2,0,0,1,0,0,2,0,0,1,0,0,9,0,0,0,0,1,5,0,0,0,0,1,2,0,0,1,0,0,2,0,0,1,0,0,8,0,0,0,0,1,4,0,0,0,1,0,5,0,0,0,0,1,2,0,0,1,0,0,5,0,0,0,0,1,6,0,0,0,0,1,5,0,0,0,0,1,4,0,0,0,1,0,4,0,0,0,1,0,11,0,0,0,0,0
220,Phnom Penh,Chamkar Mon,Tumnob Tuek,8865846a8bfffff,1863.76,54,100643.04,104.90194843615316,11.547205602270845,4,0,0,0,1,0,1,0,1,0,0,0,3,0,0,0,1,0,6,0,0,0,0,1,7,0,0,0,0,1,2,0,0,1,0,0,5,0,0,0,0,1,5,0,0,0,0,1,1,0,1,0,0,0,3,0,0,0,1,0,2,0,0,1,0,0,3,0,0,0,1,0,4,0,0,0,1,0,3,0,0,0,1,0,3,0,0,0,1,0,4,0,0,0,1,0,7,0,0,0,0,1
221,Phnom Penh,Pur SenChey,Snaor,8865846c09fffff,1068.79,54,57714.66,104.78367519412998,11.562050965023625,17,0,0,0,0,0,14,0,0,0,0,0,16,0,0,0,0,0,11,0,0,0,0,0,16,0,0,0,0,0,15,0,0,0,0,0,18,0,0,0,0,0,12,0,0,0,0,0,13,0,0,0,0,0,14,0,0,0,0,0,15,0,0,0,0,0,15,0,0,0,0,0,15,0,0,0,0,0,14,0,0,0,0,0,15,0,0,0,0,0,16,0,0,0,0,0,6,0,0,0,0,1
222,Phnom Penh,Pur SenChey,Samraong Kraom,8865846c6dfffff,218.19,66,14400.54,104.81064564545694,11.576181390589069,14,0,0,0,0,0,11,0,0,0,0,0,13,0,0,0,0,0,8,0,0,0,0,1,15,0,0,0,0,0,12,0,0,0,0,0,15,0,0,0,0,0,9,0,0,0,0,1,10,0,0,0,0,0,11,0,0,0,0,0,12,0,0,0,0,0,12,0,0,0,0,0,11,0,0,0,0,0,11,0,0,0,0,0,12,0,0,0,0,0,13,0,0,0,0,0,4,0,0,0,1,0
223,Phnom Penh,Chraoy Chongvar,Preaek Ta Sek,8865846999fffff,1856.31,102,189343.62,104.8954097042859,11.653931199115654,12,0,0,0,0,0,12,0,0,0,0,0,12,0,0,0,0,0,6,0,0,0,0,1,19,0,0,0,0,0,11,0,0,0,0,0,13,0,0,0,0,0,6,0,0,0,0,1,10,0,0,0,0,0,9,0,0,0,0,1,11,0,0,0,0,0,9,0,0,0,0,1,7,0,0,0,0,1,9,0,0,0,0,1,10,0,0,0,0,0,10,0,0,0,0,0,13,0,0,0,0,0
224,Phnom Penh,Saensokh,Tuek Thla,8865846a91fffff,3546.15,78,276599.7,104.8817397264871,11.552658523514314,6,0,0,0,0,1,3,0,0,0,1,0,5,0,0,0,0,1,5,0,0,0,0,1,8,0,0,0,0,1,4,0,0,0,1,0,7,0,0,0,0,1,4,0,0,0,1,0,3,0,0,0,1,0,4,0,0,0,1,0,4,0,0,0,1,0,5,0,0,0,0,1,5,0,0,0,0,1,4,0,0,0,1,0,5,0,0,0,0,1,5,0,0,0,0,1,4,0,0,0,1,0
225,Phnom Penh,Chraoy Chongvar,Chrouy Changvar,8865846859fffff,3543.16,90,318884.4,104.93598010700356,11.57218367208886,2,0,0,1,0,0,4,0,0,0,1,0,2,0,0,1,0,0,6,0,0,0,0,1,10,0,0,0,0,0,2,0,0,1,0,0,3,0,0,0,1,0,5,0,0,0,0,1,3,0,0,0,1,0,1,0,1,0,0,0,2,0,0,1,0,0,1,0,1,0,0,0,2,0,0,1,0,0,2,0,0,1,0,0,1,0,1,0,0,0,0,1,0,0,0,0,11,0,0,0,0,0
226,Phnom Penh,Pur SenChey,Samraong Kraom,8865846d5bfffff,1044.92,114,119120.88,104.8056426748614,11.590097629745554,15,0,0,0,0,0,13,0,0,0,0,0,14,0,0,0,0,0,8,0,0,0,0,1,16,0,0,0,0,0,13,0,0,0,0,0,16,0,0,0,0,0,9,0,0,0,0,1,11,0,0,0,0,0,12,0,0,0,0,0,13,0,0,0,0,0,12,0,0,0,0,0,12,0,0,0,0,0,12,0,0,0,0,0,13,0,0,0,0,0,13,0,0,0,0,0,5,0,0,0,0,1
227,Phnom Penh,Chamkar Mon,Tuol Svay Prey Ti Muoy,8865846a89fffff,2803.7,106,297192.19999999995,104.9107198360942,11.548335088702297,3,0,0,0,1,0,0,1,0,0,0,0,2,0,0,1,0,0,6,0,0,0,0,1,7,0,0,0,0,1,1,0,1,0,0,0,4,0,0,0,1,0,5,0,0,0,0,1,1,0,1,0,0,0,2,0,0,1,0,0,1,0,1,0,0,0,3,0,0,0,1,0,4,0,0,0,1,0,2,0,0,1,0,0,2,0,0,1,0,0,3,0,0,0,1,0,7,0,0,0,0,1
228,Phnom Penh,Dangkao,Pong Tuek,886584619bfffff,204.58,120,24549.6,104.84305395803784,11.486990591687336,12,0,0,0,0,0,9,0,0,0,0,1,11,0,0,0,0,0,13,0,0,0,0,0,7,0,0,0,0,1,11,0,0,0,0,0,13,0,0,0,0,0,13,0,0,0,0,0,10,0,0,0,0,0,12,0,0,0,0,0,11,0,0,0,0,0,13,0,0,0,0,0,13,0,0,0,0,0,12,0,0,0,0,0,12,0,0,0,0,0,13,0,0,0,0,0,7,0,0,0,0,1
229,Phnom Penh,Chbar Ampov,Preaek Pra,8865846121fffff,1860.9,38,70714.2,104.93312882632668,11.52236151222984,3,0,0,0,1,0,2,0,0,1,0,0,2,0,0,1,0,0,10,0,0,0,0,0,4,0,0,0,1,0,3,0,0,0,1,0,3,0,0,0,1,0,9,0,0,0,0,1,4,0,0,0,1,0,5,0,0,0,0,1,3,0,0,0,1,0,6,0,0,0,0,1,7,0,0,0,0,1,5,0,0,0,0,1,4,0,0,0,1,0,5,0,0,0,0,1,10,0,0,0,0,0
230,Phnom Penh,Dangkao,Cheung Aek,8865846157fffff,1940.7,58,112560.6,104.9188244062276,11.485904840454982,7,0,0,0,0,1,6,0,0,0,0,1,7,0,0,0,0,1,13,0,0,0,0,0,0,1,0,0,0,0,7,0,0,0,0,1,7,0,0,0,0,1,12,0,0,0,0,0,8,0,0,0,0,1,9,0,0,0,0,1,7,0,0,0,0,1,10,0,0,0,0,0,11,0,0,0,0,0,9,0,0,0,0,1,8,0,0,0,0,1,9,0,0,0,0,1,11,0,0,0,0,0
231,Phnom Penh,Chbar Ampov,Preaek Pra,886584612dfffff,2679.29,32,85737.28,104.95008519598431,11.519309089810095,3,0,0,0,1,0,4,0,0,0,1,0,3,0,0,0,1,0,11,0,0,0,0,0,5,0,0,0,0,1,4,0,0,0,1,0,2,0,0,1,0,0,10,0,0,0,0,0,6,0,0,0,0,1,6,0,0,0,0,1,4,0,0,0,1,0,7,0,0,0,0,1,8,0,0,0,0,1,6,0,0,0,0,1,5,0,0,0,0,1,5,0,0,0,0,1,12,0,0,0,0,0
232,Phnom Penh,Chbar Ampov,Chhbar Ampov Ti Muoy,8865846127fffff,1978.13,106,209681.78,104.93631936050431,11.525767484094192,2,0,0,1,0,0,2,0,0,1,0,0,2,0,0,1,0,0,10,0,0,0,0,0,5,0,0,0,0,1,3,0,0,0,1,0,2,0,0,1,0,0,9,0,0,0,0,1,4,0,0,0,1,0,5,0,0,0,0,1,3,0,0,0,1,0,5,0,0,0,0,1,7,0,0,0,0,1,5,0,0,0,0,1,4,0,0,0,1,0,4,0,0,0,1,0,11,0,0,0,0,0
233,Phnom Penh,Pur SenChey,Kakab,8865846f09fffff,1416.74,102,144507.48,104.84230723144702,11.554218927992178,10,0,0,0,0,0,7,0,0,0,0,1,9,0,0,0,0,1,6,0,0,0,0,1,11,0,0,0,0,0,9,0,0,0,0,1,12,0,0,0,0,0,6,0,0,0,0,1,7,0,0,0,0,1,8,0,0,0,0,1,8,0,0,0,0,1,8,0,0,0,0,1,9,0,0,0,0,1,8,0,0,0,0,1,9,0,0,0,0,1,9,0,0,0,0,1,0,1,0,0,0,0
234,Phnom Penh,Russey Keo,Ruessei Kaev,88658468e9fffff,1106.68,112,123948.16,104.90957141776305,11.607656411879312,7,0,0,0,0,1,7,0,0,0,0,1,7,0,0,0,0,1,3,0,0,0,1,0,13,0,0,0,0,0,6,0,0,0,0,1,8,0,0,0,0,1,2,0,0,1,0,0,5,0,0,0,0,1,4,0,0,0,1,0,6,0,0,0,0,1,3,0,0,0,1,0,2,0,0,1,0,0,3,0,0,0,1,0,5,0,0,0,0,1,4,0,0,0,1,0,10,0,0,0,0,0
235,Phnom Penh,Tuol Kouk,Boeng Kak Ti Pir,8865846ab5fffff,1844.4,56,103286.4,104.89835218802408,11.576232551855211,5,0,0,0,0,1,4,0,0,0,1,0,4,0,0,0,1,0,3,0,0,0,1,0,10,0,0,0,0,0,4,0,0,0,1,0,6,0,0,0,0,1,2,0,0,1,0,0,2,0,0,1,0,0,2,0,0,1,0,0,3,0,0,0,1,0,2,0,0,1,0,0,2,0,0,1,0,0,2,0,0,1,0,0,3,0,0,0,1,0,3,0,0,0,1,0,7,0,0,0,0,1
236,Phnom Penh,Chbar Ampov,Veal Sbov,886584616dfffff,1527.27,74,113017.98,104.96694813079868,11.49887586219108,6,0,0,0,0,1,7,0,0,0,0,1,6,0,0,0,0,1,14,0,0,0,0,0,5,0,0,0,0,1,7,0,0,0,0,1,5,0,0,0,0,1,13,0,0,0,0,0,9,0,0,0,0,1,9,0,0,0,0,1,7,0,0,0,0,1,9,0,0,0,0,1,11,0,0,0,0,0,9,0,0,0,0,1,8,0,0,0,0,1,8,0,0,0,0,1,15,0,0,0,0,0
237,Phnom Penh,Russey Keo,Tuol Sangke,886584681bfffff,3440.2,80,275216.0,104.91239717604785,11.594077440592274,5,0,0,0,0,1,5,0,0,0,0,1,5,0,0,0,0,1,3,0,0,0,1,0,12,0,0,0,0,0,4,0,0,0,1,0,7,0,0,0,0,1,2,0,0,1,0,0,3,0,0,0,1,0,2,0,0,1,0,0,4,0,0,0,1,0,2,0,0,1,0,0,1,0,1,0,0,0,2,0,0,1,0,0,3,0,0,0,1,0,3,0,0,0,1,0,9,0,0,0,0,1
238,Phnom Penh,Praek Pnov,Kouk Roka,8865846d5dfffff,585.31,64,37459.84,104.8144372547862,11.589659167272028,14,0,0,0,0,0,12,0,0,0,0,0,13,0,0,0,0,0,7,0,0,0,0,1,16,0,0,0,0,0,12,0,0,0,0,0,15,0,0,0,0,0,8,0,0,0,0,1,10,0,0,0,0,0,11,0,0,0,0,0,12,0,0,0,0,0,11,0,0,0,0,0,11,0,0,0,0,0,11,0,0,0,0,0,12,0,0,0,0,0,12,0,0,0,0,0,5,0,0,0,0,1
239,Phnom Penh,Saensokh,Tuek Thla,8865846f69fffff,1758.19,104,182851.76,104.8643387412384,11.56263647090967,8,0,0,0,0,1,5,0,0,0,0,1,7,0,0,0,0,1,4,0,0,0,1,0,10,0,0,0,0,0,6,0,0,0,0,1,9,0,0,0,0,1,4,0,0,0,1,0,4,0,0,0,1,0,5,0,0,0,0,1,6,0,0,0,0,1,6,0,0,0,0,1,6,0,0,0,0,1,5,0,0,0,0,1,6,0,0,0,0,1,7,0,0,0,0,1,3,0,0,0,1,0
240,Phnom Penh,Pur SenChey,Ovlaok,8865846c1bfffff,199.18,120,23901.6,104.75254701957547,11.55557339065748,20,0,0,0,0,0,17,0,0,0,0,0,19,0,0,0,0,0,14,0,0,0,0,0,19,0,0,0,0,0,19,0,0,0,0,0,21,0,0,0,0,0,15,0,0,0,0,0,17,0,0,0,0,0,18,0,0,0,0,0,18,0,0,0,0,0,18,0,0,0,0,0,18,0,0,0,0,0,18,0,0,0,0,0,19,0,0,0,0,0,19,0,0,0,0,0,9,0,0,0,0,1
241,Phnom Penh,Mean Chey,Boeng Tumpun,8865846a89fffff,1539.24,100,153924.0,104.90793433596068,11.550789422663437,3,0,0,0,1,0,1,0,1,0,0,0,2,0,0,1,0,0,6,0,0,0,0,1,7,0,0,0,0,1,2,0,0,1,0,0,4,0,0,0,1,0,5,0,0,0,0,1,1,0,1,0,0,0,2,0,0,1,0,0,1,0,1,0,0,0,3,0,0,0,1,0,4,0,0,0,1,0,2,0,0,1,0,0,2,0,0,1,0,0,3,0,0,0,1,0,7,0,0,0,0,1
242,Phnom Penh,Doun Penh,Chakto Mukh,8865846ae5fffff,1261.02,48,60528.96,104.93209897243102,11.57104338407993,2,0,0,1,0,0,3,0,0,0,1,0,2,0,0,1,0,0,6,0,0,0,0,1,9,0,0,0,0,1,2,0,0,1,0,0,3,0,0,0,1,0,5,0,0,0,0,1,2,0,0,1,0,0,1,0,1,0,0,0,2,0,0,1,0,0,1,0,1,0,0,0,2,0,0,1,0,0,1,0,1,0,0,0,0,1,0,0,0,0,0,1,0,0,0,0,10,0,0,0,0,0
243,Phnom Penh,Dangkao,Preaek Kampues,8865846029fffff,1590.26,112,178109.12,104.90375739481028,11.459210670220784,11,0,0,0,0,0,9,0,0,0,0,1,10,0,0,0,0,0,15,0,0,0,0,0,3,0,0,0,1,0,10,0,0,0,0,0,10,0,0,0,0,0,15,0,0,0,0,0,11,0,0,0,0,0,12,0,0,0,0,0,10,0,0,0,0,0,13,0,0,0,0,0,14,0,0,0,0,0,12,0,0,0,0,0,11,0,0,0,0,0,12,0,0,0,0,0,12,0,0,0,0,0
244,Phnom Penh,Tuol Kouk,Boeng Kak Ti Pir,8865846ab1fffff,3601.96,92,331380.32,104.89076818779994,11.567662399019058,5,0,0,0,0,1,3,0,0,0,1,0,5,0,0,0,0,1,3,0,0,0,1,0,9,0,0,0,0,1,4,0,0,0,1,0,7,0,0,0,0,1,2,0,0,1,0,0,2,0,0,1,0,0,3,0,0,0,1,0,3,0,0,0,1,0,3,0,0,0,1,0,3,0,0,0,1,0,2,0,0,1,0,0,4,0,0,0,1,0,4,0,0,0,1,0,6,0,0,0,0,1
245,Phnom Penh,Chbar Ampov,Chbar Ampov Ti Pir,8865846a13fffff,4157.63,56,232827.28,104.93279317966908,11.548224349343544,1,0,1,0,0,0,2,0,0,1,0,0,0,1,0,0,0,0,7,0,0,0,0,1,7,0,0,0,0,1,0,1,0,0,0,0,2,0,0,1,0,0,6,0,0,0,0,1,2,0,0,1,0,0,2,0,0,1,0,0,1,0,1,0,0,0,3,0,0,0,1,0,4,0,0,0,1,0,3,0,0,0,1,0,1,0,1,0,0,0,2,0,0,1,0,0,10,0,0,0,0,0
246,Phnom Penh,Mean Chey,Chak Angrae Kraom,8865846121fffff,1972.96,56,110485.76,104.93753210930495,11.518596724249733,3,0,0,0,1,0,3,0,0,0,1,0,3,0,0,0,1,0,10,0,0,0,0,0,4,0,0,0,1,0,3,0,0,0,1,0,3,0,0,0,1,0,9,0,0,0,0,1,5,0,0,0,0,1,6,0,0,0,0,1,3,0,0,0,1,0,6,0,0,0,0,1,7,0,0,0,0,1,6,0,0,0,0,1,5,0,0,0,0,1,5,0,0,0,0,1,11,0,0,0,0,0
247,Phnom Penh,Russey Keo,Svay Pak,88658468abfffff,2855.26,38,108499.88,104.88180136306865,11.6259637825912,10,0,0,0,0,0,10,0,0,0,0,0,10,0,0,0,0,0,3,0,0,0,1,0,16,0,0,0,0,0,9,0,0,0,0,1,11,0,0,0,0,0,3,0,0,0,1,0,7,0,0,0,0,1,7,0,0,0,0,1,9,0,0,0,0,1,7,0,0,0,0,1,5,0,0,0,0,1,7,0,0,0,0,1,8,0,0,0,0,1,8,0,0,0,0,1,9,0,0,0,0,1
248,Phnom Penh,Dangkao,Dangkao,8865846ad9fffff,858.33,52,44633.16,104.90248920274286,11.524956059486405,5,0,0,0,0,1,2,0,0,1,0,0,4,0,0,0,1,0,8,0,0,0,0,1,4,0,0,0,1,0,4,0,0,0,1,0,5,0,0,0,0,1,7,0,0,0,0,1,3,0,0,0,1,0,5,0,0,0,0,1,3,0,0,0,1,0,6,0,0,0,0,1,7,0,0,0,0,1,5,0,0,0,0,1,5,0,0,0,0,1,5,0,0,0,0,1,7,0,0,0,0,1
249,Phnom Penh,Chamkar Mon,Tuol Svay Prey Ti Muoy,8865846a8dfffff,4046.97,114,461354.58,104.90986338509458,11.554619813785598,3,0,0,0,1,0,1,0,1,0,0,0,2,0,0,1,0,0,5,0,0,0,0,1,7,0,0,0,0,1,1,0,1,0,0,0,4,0,0,0,1,0,4,0,0,0,1,0,0,1,0,0,0,0,1,0,1,0,0,0,1,0,1,0,0,0,2,0,0,1,0,0,3,0,0,0,1,0,2,0,0,1,0,0,2,0,0,1,0,0,2,0,0,1,0,0,7,0,0,0,0,1
250,Phnom Penh,Tuol Kouk,Boeng Kak Ti Muoy,8865846aa7fffff,2111.07,94,198440.58,104.9036127033868,11.58969378173868,5,0,0,0,0,1,5,0,0,0,0,1,5,0,0,0,0,1,2,0,0,1,0,0,11,0,0,0,0,0,4,0,0,0,1,0,7,0,0,0,0,1,1,0,1,0,0,0,3,0,0,0,1,0,2,0,0,1,0,0,4,0,0,0,1,0,2,0,0,1,0,0,1,0,1,0,0,0,2,0,0,1,0,0,3,0,0,0,1,0,3,0,0,0,1,0,8,0,0,0,0,1
251,Phnom Penh,Tuol Kouk,Boeng Kak Ti Muoy,8865846aa3fffff,4142.49,92,381109.08,104.89854157492265,11.579813729052486,5,0,0,0,0,1,4,0,0,0,1,0,5,0,0,0,0,1,2,0,0,1,0,0,10,0,0,0,0,0,4,0,0,0,1,0,7,0,0,0,0,1,1,0,1,0,0,0,2,0,0,1,0,0,2,0,0,1,0,0,4,0,0,0,1,0,2,0,0,1,0,0,2,0,0,1,0,0,2,0,0,1,0,0,3,0,0,0,1,0,3,0,0,0,1,0,7,0,0,0,0,1
252,Phnom Penh,Praek Pnov,Kouk Roka,8865846f37fffff,1961.14,56,109823.84,104.82264825220857,11.58135689429399,13,0,0,0,0,0,10,0,0,0,0,0,12,0,0,0,0,0,6,0,0,0,0,1,14,0,0,0,0,0,11,0,0,0,0,0,14,0,0,0,0,0,7,0,0,0,0,1,9,0,0,0,0,1,10,0,0,0,0,0,11,0,0,0,0,0,10,0,0,0,0,0,10,0,0,0,0,0,10,0,0,0,0,0,11,0,0,0,0,0,11,0,0,0,0,0,3,0,0,0,1,0
253,Phnom Penh,Saensokh,Krang Thnong,8865846f27fffff,2025.93,74,149918.82,104.84053189317638,11.587873588876723,11,0,0,0,0,0,9,0,0,0,0,1,10,0,0,0,0,0,4,0,0,0,1,0,14,0,0,0,0,0,10,0,0,0,0,0,13,0,0,0,0,0,5,0,0,0,0,1,8,0,0,0,0,1,8,0,0,0,0,1,9,0,0,0,0,1,8,0,0,0,0,1,8,0,0,0,0,1,8,0,0,0,0,1,9,0,0,0,0,1,10,0,0,0,0,0,4,0,0,0,1,0
254,Phnom Penh,Mean Chey,Chak Angrae Leu,886584612bfffff,1343.02,76,102069.52,104.93599961305806,11.515905733941008,3,0,0,0,1,0,3,0,0,0,1,0,3,0,0,0,1,0,10,0,0,0,0,0,4,0,0,0,1,0,4,0,0,0,1,0,3,0,0,0,1,0,9,0,0,0,0,1,5,0,0,0,0,1,6,0,0,0,0,1,4,0,0,0,1,0,6,0,0,0,0,1,8,0,0,0,0,1,6,0,0,0,0,1,5,0,0,0,0,1,5,0,0,0,0,1,11,0,0,0,0,0
255,Phnom Penh,Chraoy Chongvar,Preaek Lieb,8865846837fffff,1525.25,104,158626.0,104.92650181924778,11.63395067747476,9,0,0,0,0,1,10,0,0,0,0,0,9,0,0,0,0,1,6,0,0,0,0,1,16,0,0,0,0,0,9,0,0,0,0,1,10,0,0,0,0,0,5,0,0,0,0,1,8,0,0,0,0,1,7,0,0,0,0,1,9,0,0,0,0,1,6,0,0,0,0,1,5,0,0,0,0,1,6,0,0,0,0,1,7,0,0,0,0,1,7,0,0,0,0,1,13,0,0,0,0,0
256,Phnom Penh,Chbar Ampov,Chbar Ampov Ti Pir,8865846127fffff,2571.61,84,216015.24,104.93001664909757,11.523639822985505,3,0,0,0,1,0,2,0,0,1,0,0,2,0,0,1,0,0,9,0,0,0,0,1,4,0,0,0,1,0,3,0,0,0,1,0,3,0,0,0,1,0,8,0,0,0,0,1,4,0,0,0,1,0,5,0,0,0,0,1,3,0,0,0,1,0,5,0,0,0,0,1,7,0,0,0,0,1,5,0,0,0,0,1,4,0,0,0,1,0,5,0,0,0,0,1,10,0,0,0,0,0
257,Phnom Penh,Chamkar Mon,Boeng Keng Kang Ti Pir,8865846a8dfffff,4519.81,110,497179.1,104.91074733308314,11.555749819429291,3,0,0,0,1,0,1,0,1,0,0,0,2,0,0,1,0,0,5,0,0,0,0,1,7,0,0,0,0,1,1,0,1,0,0,0,4,0,0,0,1,0,4,0,0,0,1,0,0,1,0,0,0,0,1,0,1,0,0,0,1,0,1,0,0,0,2,0,0,1,0,0,3,0,0,0,1,0,2,0,0,1,0,0,2,0,0,1,0,0,2,0,0,1,0,0,7,0,0,0,0,1
258,Phnom Penh,Chraoy Chongvar,Preaek Lieb,88658469d7fffff,2021.59,86,173856.74,104.9014636825568,11.647781697786204,11,0,0,0,0,0,11,0,0,0,0,0,11,0,0,0,0,0,5,0,0,0,0,1,18,0,0,0,0,0,10,0,0,0,0,0,12,0,0,0,0,0,6,0,0,0,0,1,9,0,0,0,0,1,8,0,0,0,0,1,10,0,0,0,0,0,8,0,0,0,0,1,7,0,0,0,0,1,8,0,0,0,0,1,9,0,0,0,0,1,9,0,0,0,0,1,12,0,0,0,0,0
259,Phnom Penh,Russey Keo,Svay Pak,88658468a3fffff,1586.3,40,63452.0,104.8804733431813,11.63043224718496,11,0,0,0,0,0,10,0,0,0,0,0,10,0,0,0,0,0,3,0,0,0,1,0,16,0,0,0,0,0,10,0,0,0,0,0,12,0,0,0,0,0,4,0,0,0,1,0,8,0,0,0,0,1,7,0,0,0,0,1,9,0,0,0,0,1,7,0,0,0,0,1,6,0,0,0,0,1,7,0,0,0,0,1,9,0,0,0,0,1,8,0,0,0,0,1,10,0,0,0,0,0
260,Phnom Penh,Saensokh,Khmuonh,8865846d69fffff,2659.19,66,175506.54,104.8473078589064,11.617563914484112,12,0,0,0,0,0,11,0,0,0,0,0,12,0,0,0,0,0,4,0,0,0,1,0,16,0,0,0,0,0,11,0,0,0,0,0,14,0,0,0,0,0,5,0,0,0,0,1,9,0,0,0,0,1,9,0,0,0,0,1,11,0,0,0,0,0,9,0,0,0,0,1,8,0,0,0,0,1,9,0,0,0,0,1,10,0,0,0,0,0,10,0,0,0,0,0,7,0,0,0,0,1
261,Phnom Penh,Mean Chey,Stueng Mean Chey,8865846adbfffff,1837.03,32,58784.96,104.89304972648893,11.525256252765244,6,0,0,0,0,1,2,0,0,1,0,0,4,0,0,0,1,0,8,0,0,0,0,1,5,0,0,0,0,1,4,0,0,0,1,0,6,0,0,0,0,1,7,0,0,0,0,1,4,0,0,0,1,0,5,0,0,0,0,1,4,0,0,0,1,0,6,0,0,0,0,1,7,0,0,0,0,1,5,0,0,0,0,1,5,0,0,0,0,1,6,0,0,0,0,1,6,0,0,0,0,1
262,Phnom Penh,Saensokh,Tuek Thla,8865846a97fffff,3062.08,48,146979.84,104.87645496022344,11.557900453635291,7,0,0,0,0,1,4,0,0,0,1,0,6,0,0,0,0,1,4,0,0,0,1,0,9,0,0,0,0,1,5,0,0,0,0,1,8,0,0,0,0,1,4,0,0,0,1,0,3,0,0,0,1,0,4,0,0,0,1,0,5,0,0,0,0,1,5,0,0,0,0,1,5,0,0,0,0,1,4,0,0,0,1,0,5,0,0,0,0,1,6,0,0,0,0,1,4,0,0,0,1,0
263,Phnom Penh,Dangkao,Preaek Kampues,8865846001fffff,1150.0,94,108100.0,104.8968023223267,11.45034854975765,12,0,0,0,0,0,10,0,0,0,0,0,11,0,0,0,0,0,16,0,0,0,0,0,4,0,0,0,1,0,11,0,0,0,0,0,12,0,0,0,0,0,15,0,0,0,0,0,12,0,0,0,0,0,13,0,0,0,0,0,11,0,0,0,0,0,14,0,0,0,0,0,15,0,0,0,0,0,13,0,0,0,0,0,13,0,0,0,0,0,13,0,0,0,0,0,12,0,0,0,0,0
264,Phnom Penh,Doun Penh,Srah Chak,886584685bfffff,1800.74,118,212487.32,104.92792475303152,11.57194011243081,2,0,0,1,0,0,3,0,0,0,1,0,2,0,0,1,0,0,5,0,0,0,0,1,9,0,0,0,0,1,2,0,0,1,0,0,4,0,0,0,1,0,4,0,0,0,1,0,2,0,0,1,0,0,1,0,1,0,0,0,2,0,0,1,0,0,0,1,0,0,0,0,1,0,1,0,0,0,1,0,1,0,0,0,0,1,0,0,0,0,0,1,0,0,0,0,10,0,0,0,0,0
265,Phnom Penh,Tuol Kouk,Boeng Salang,8865846a81fffff,3626.34,80,290107.2,104.90756642703828,11.558620086084524,3,0,0,0,1,0,2,0,0,1,0,0,2,0,0,1,0,0,5,0,0,0,0,1,8,0,0,0,0,1,2,0,0,1,0,0,5,0,0,0,0,1,4,0,0,0,1,0,0,1,0,0,0,0,1,0,1,0,0,0,1,0,1,0,0,0,2,0,0,1,0,0,3,0,0,0,1,0,1,0,1,0,0,0,2,0,0,1,0,0,2,0,0,1,0,0,7,0,0,0,0,1
266,Phnom Penh,Pur SenChey,Kamboul,8865846ee5fffff,954.74,56,53465.44,104.76593416015794,11.528621307348146,19,0,0,0,0,0,16,0,0,0,0,0,18,0,0,0,0,0,14,0,0,0,0,0,17,0,0,0,0,0,17,0,0,0,0,0,20,0,0,0,0,0,15,0,0,0,0,0,16,0,0,0,0,0,17,0,0,0,0,0,17,0,0,0,0,0,17,0,0,0,0,0,17,0,0,0,0,0,17,0,0,0,0,0,18,0,0,0,0,0,18,0,0,0,0,0,8,0,0,0,0,1
267,Phnom Penh,Pur SenChey,Chaom Chau,88658461b9fffff,1374.72,42,57738.24,104.85266216564374,11.514657276546789,10,0,0,0,0,0,7,0,0,0,0,1,9,0,0,0,0,1,9,0,0,0,0,1,7,0,0,0,0,1,9,0,0,0,0,1,11,0,0,0,0,0,9,0,0,0,0,1,7,0,0,0,0,1,9,0,0,0,0,1,8,0,0,0,0,1,10,0,0,0,0,0,10,0,0,0,0,0,9,0,0,0,0,1,9,0,0,0,0,1,10,0,0,0,0,0,4,0,0,0,1,0
268,Phnom Penh,Tuol Kouk,Phsar Depou Ti Muoy,8865846aabfffff,1002.37,66,66156.42,104.90290244661904,11.56638949290703,4,0,0,0,1,0,3,0,0,0,1,0,3,0,0,0,1,0,4,0,0,0,1,0,9,0,0,0,0,1,3,0,0,0,1,0,5,0,0,0,0,1,3,0,0,0,1,0,1,0,1,0,0,0,1,0,1,0,0,0,2,0,0,1,0,0,2,0,0,1,0,0,2,0,0,1,0,0,1,0,1,0,0,0,2,0,0,1,0,0,3,0,0,0,1,0,7,0,0,0,0,1
269,Phnom Penh,Chamkar Mon,Phsar Daeum Thkov,8865846ac1fffff,3334.01,102,340069.02,104.9242010743055,11.535563560399858,2,0,0,1,0,0,1,0,1,0,0,0,1,0,1,0,0,0,8,0,0,0,0,1,5,0,0,0,0,1,1,0,1,0,0,0,3,0,0,0,1,0,7,0,0,0,0,1,3,0,0,0,1,0,3,0,0,0,1,0,1,0,1,0,0,0,4,0,0,0,1,0,5,0,0,0,0,1,4,0,0,0,1,0,3,0,0,0,1,0,3,0,0,0,1,0,9,0,0,0,0,1
270,Phnom Penh,Chraoy Chongvar,Chrouy Changvar,8865846857fffff,969.19,32,31014.08,104.92805598977108,11.586751861098971,4,0,0,0,1,0,5,0,0,0,0,1,4,0,0,0,1,0,5,0,0,0,0,1,11,0,0,0,0,0,3,0,0,0,1,0,5,0,0,0,0,1,4,0,0,0,1,0,3,0,0,0,1,0,2,0,0,1,0,0,4,0,0,0,1,0,1,0,1,0,0,0,0,1,0,0,0,0,1,0,1,0,0,0,2,0,0,1,0,0,1,0,1,0,0,0,10,0,0,0,0,0
271,Phnom Penh,Dangkao,Cheung Aek,8865846029fffff,1825.65,32,58420.8,104.90834614096444,11.458722366662949,10,0,0,0,0,0,9,0,0,0,0,1,10,0,0,0,0,0,15,0,0,0,0,0,2,0,0,1,0,0,10,0,0,0,0,0,10,0,0,0,0,0,15,0,0,0,0,0,11,0,0,0,0,0,12,0,0,0,0,0,10,0,0,0,0,0,13,0,0,0,0,0,14,0,0,0,0,0,12,0,0,0,0,0,11,0,0,0,0,0,12,0,0,0,0,0,12,0,0,0,0,0
272,Phnom Penh,Saensokh,Khmuonh,886584688bfffff,2033.9,78,158644.2,104.87152356918628,11.60495543684155,9,0,0,0,0,1,8,0,0,0,0,1,9,0,0,0,0,1,1,0,1,0,0,0,14,0,0,0,0,0,8,0,0,0,0,1,11,0,0,0,0,0,2,0,0,1,0,0,6,0,0,0,0,1,6,0,0,0,0,1,8,0,0,0,0,1,6,0,0,0,0,1,5,0,0,0,0,1,6,0,0,0,0,1,7,0,0,0,0,1,7,0,0,0,0,1,7,0,0,0,0,1
273,Phnom Penh,Chraoy Chongvar,Preaek Ta Sek,8865846815fffff,1476.63,96,141756.48,104.92505292376104,11.611221906360576,6,0,0,0,0,1,7,0,0,0,0,1,7,0,0,0,0,1,4,0,0,0,1,0,14,0,0,0,0,0,6,0,0,0,0,1,8,0,0,0,0,1,4,0,0,0,1,0,5,0,0,0,0,1,4,0,0,0,1,0,6,0,0,0,0,1,3,0,0,0,1,0,2,0,0,1,0,0,4,0,0,0,1,0,5,0,0,0,0,1,4,0,0,0,1,0,11,0,0,0,0,0
274,Phnom Penh,Chamkar Mon,Boeng Keng Kang Ti Bei,8865846ac5fffff,2498.9,36,89960.40000000001,104.92285954257989,11.54712216486256,2,0,0,1,0,0,1,0,1,0,0,0,1,0,1,0,0,0,7,0,0,0,0,1,7,0,0,0,0,1,0,1,0,0,0,0,3,0,0,0,1,0,6,0,0,0,0,1,1,0,1,0,0,0,2,0,0,1,0,0,0,1,0,0,0,0,3,0,0,0,1,0,4,0,0,0,1,0,2,0,0,1,0,0,1,0,1,0,0,0,2,0,0,1,0,0,9,0,0,0,0,1
275,Phnom Penh,Prampir Meakkakra,Monourom,8865846aa9fffff,3639.0,96,349344.0,104.91541175783364,11.564463779218311,3,0,0,0,1,0,2,0,0,1,0,0,2,0,0,1,0,0,5,0,0,0,0,1,8,0,0,0,0,1,1,0,1,0,0,0,4,0,0,0,1,0,4,0,0,0,1,0,0,1,0,0,0,0,0,1,0,0,0,0,1,0,1,0,0,0,1,0,1,0,0,0,2,0,0,1,0,0,0,1,0,0,0,0,1,0,1,0,0,0,1,0,1,0,0,0,8,0,0,0,0,1
276,Phnom Penh,Prampir Meakkakra,Veal Vong,8865846aabfffff,1516.51,36,54594.36,104.90776164116927,11.568834368544032,4,0,0,0,1,0,3,0,0,0,1,0,3,0,0,0,1,0,4,0,0,0,1,0,9,0,0,0,0,1,2,0,0,1,0,0,5,0,0,0,0,1,3,0,0,0,1,0,1,0,1,0,0,0,1,0,1,0,0,0,2,0,0,1,0,0,1,0,1,0,0,0,2,0,0,1,0,0,1,0,1,0,0,0,2,0,0,1,0,0,2,0,0,1,0,0,7,0,0,0,0,1
277,Phnom Penh,Mean Chey,Stueng Mean Chey,8865846a91fffff,2932.95,58,170111.09999999998,104.88187654597256,11.546124563608585,6,0,0,0,0,1,3,0,0,0,1,0,5,0,0,0,0,1,5,0,0,0,0,1,7,0,0,0,0,1,4,0,0,0,1,0,7,0,0,0,0,1,5,0,0,0,0,1,3,0,0,0,1,0,4,0,0,0,1,0,4,0,0,0,1,0,5,0,0,0,0,1,6,0,0,0,0,1,4,0,0,0,1,0,5,0,0,0,0,1,6,0,0,0,0,1,4,0,0,0,1,0
278,Phnom Penh,Saensokh,Phnom Penh Thmei,8865846f6dfffff,2093.43,56,117232.08,104.87324008376964,11.564640448911678,7,0,0,0,0,1,5,0,0,0,0,1,6,0,0,0,0,1,3,0,0,0,1,0,10,0,0,0,0,0,6,0,0,0,0,1,8,0,0,0,0,1,3,0,0,0,1,0,4,0,0,0,1,0,4,0,0,0,1,0,5,0,0,0,0,1,5,0,0,0,0,1,5,0,0,0,0,1,4,0,0,0,1,0,6,0,0,0,0,1,6,0,0,0,0,1,4,0,0,0,1,0
279,Phnom Penh,Russey Keo,Svay Pak,886580d243fffff,2042.53,62,126636.86,104.86166793324682,11.656695536285138,14,0,0,0,0,0,14,0,0,0,0,0,14,0,0,0,0,0,6,0,0,0,0,1,20,0,0,0,0,0,13,0,0,0,0,0,15,0,0,0,0,0,7,0,0,0,0,1,11,0,0,0,0,0,11,0,0,0,0,0,13,0,0,0,0,0,11,0,0,0,0,0,9,0,0,0,0,1,11,0,0,0,0,0,12,0,0,0,0,0,12,0,0,0,0,0,12,0,0,0,0,0
280,Phnom Penh,Pur SenChey,Trapeang Krasang,8865846e23fffff,1377.25,34,46826.5,104.79923665615144,11.52836798384592,15,0,0,0,0,0,12,0,0,0,0,0,14,0,0,0,0,0,11,0,0,0,0,0,13,0,0,0,0,0,14,0,0,0,0,0,16,0,0,0,0,0,12,0,0,0,0,0,12,0,0,0,0,0,13,0,0,0,0,0,13,0,0,0,0,0,14,0,0,0,0,0,14,0,0,0,0,0,13,0,0,0,0,0,14,0,0,0,0,0,15,0,0,0,0,0,4,0,0,0,1,0
281,Phnom Penh,Mean Chey,Stueng Mean Chey,8865846a99fffff,5003.2,40,200128.0,104.88430050080022,11.541931569394947,6,0,0,0,0,1,3,0,0,0,1,0,5,0,0,0,0,1,6,0,0,0,0,1,7,0,0,0,0,1,4,0,0,0,1,0,7,0,0,0,0,1,5,0,0,0,0,1,3,0,0,0,1,0,4,0,0,0,1,0,4,0,0,0,1,0,5,0,0,0,0,1,6,0,0,0,0,1,4,0,0,0,1,0,5,0,0,0,0,1,5,0,0,0,0,1,5,0,0,0,0,1
282,Phnom Penh,Prampir Meakkakra,Ou Ruessei Ti Buon,8865846aa9fffff,3206.33,92,294982.36,104.9147333886376,11.56473531262452,3,0,0,0,1,0,2,0,0,1,0,0,2,0,0,1,0,0,5,0,0,0,0,1,8,0,0,0,0,1,1,0,1,0,0,0,4,0,0,0,1,0,4,0,0,0,1,0,0,1,0,0,0,0,0,1,0,0,0,0,1,0,1,0,0,0,1,0,1,0,0,0,2,0,0,1,0,0,0,1,0,0,0,0,1,0,1,0,0,0,1,0,1,0,0,0,8,0,0,0,0,1
283,Phnom Penh,Praek Pnov,Ponsang,8865846d89fffff,542.62,106,57517.72,104.75984629322014,11.621316754410952,21,0,0,0,0,0,19,0,0,0,0,0,20,0,0,0,0,0,13,0,0,0,0,0,22,0,0,0,0,0,19,0,0,0,0,0,22,0,0,0,0,0,14,0,0,0,0,0,17,0,0,0,0,0,18,0,0,0,0,0,19,0,0,0,0,0,18,0,0,0,0,0,17,0,0,0,0,0,17,0,0,0,0,0,19,0,0,0,0,0,19,0,0,0,0,0,11,0,0,0,0,0
284,Phnom Penh,Doun Penh,Chakto Mukh,8865846ae1fffff,3400.62,52,176832.24,104.92909767555416,11.563524734255342,1,0,1,0,0,0,2,0,0,1,0,0,1,0,1,0,0,0,6,0,0,0,0,1,8,0,0,0,0,1,1,0,1,0,0,0,3,0,0,0,1,0,5,0,0,0,0,1,2,0,0,1,0,0,1,0,1,0,0,0,1,0,1,0,0,0,1,0,1,0,0,0,2,0,0,1,0,0,1,0,1,0,0,0,0,1,0,0,0,0,0,1,0,0,0,0,10,0,0,0,0,0
285,Phnom Penh,Dangkao,Cheung Aek,8865846153fffff,2253.29,54,121677.66,104.91158036838928,11.471577212042462,9,0,0,0,0,1,7,0,0,0,0,1,8,0,0,0,0,1,14,0,0,0,0,0,1,0,1,0,0,0,9,0,0,0,0,1,9,0,0,0,0,1,13,0,0,0,0,0,9,0,0,0,0,1,10,0,0,0,0,0,8,0,0,0,0,1,11,0,0,0,0,0,12,0,0,0,0,0,11,0,0,0,0,0,10,0,0,0,0,0,11,0,0,0,0,0,11,0,0,0,0,0
286,Phnom Penh,Chraoy Chongvar,Chrouy Changvar,8865846855fffff,1307.33,116,151650.28,104.94272782795012,11.587053870707518,3,0,0,0,1,0,5,0,0,0,0,1,4,0,0,0,1,0,6,0,0,0,0,1,11,0,0,0,0,0,4,0,0,0,1,0,4,0,0,0,1,0,5,0,0,0,0,1,4,0,0,0,1,0,3,0,0,0,1,0,4,0,0,0,1,0,2,0,0,1,0,0,2,0,0,1,0,0,3,0,0,0,1,0,3,0,0,0,1,0,2,0,0,1,0,0,12,0,0,0,0,0
287,Phnom Penh,Dangkao,Dangkao,886584618dfffff,2767.8,40,110712.0,104.8773177563092,11.499181604227088,9,0,0,0,0,1,6,0,0,0,0,1,8,0,0,0,0,1,11,0,0,0,0,0,4,0,0,0,1,0,8,0,0,0,0,1,9,0,0,0,0,1,10,0,0,0,0,0,7,0,0,0,0,1,9,0,0,0,0,1,7,0,0,0,0,1,9,0,0,0,0,1,10,0,0,0,0,0,9,0,0,0,0,1,9,0,0,0,0,1,9,0,0,0,0,1,7,0,0,0,0,1
288,Phnom Penh,Chamkar Mon,Tonle Basak,8865846a15fffff,2599.7,40,103988.0,104.95443646535615,11.545012395891227,1,0,1,0,0,0,4,0,0,0,1,0,2,0,0,1,0,0,9,0,0,0,0,1,8,0,0,0,0,1,3,0,0,0,1,0,0,1,0,0,0,0,8,0,0,0,0,1,5,0,0,0,0,1,4,0,0,0,1,0,3,0,0,0,1,0,4,0,0,0,1,0,6,0,0,0,0,1,5,0,0,0,0,1,3,0,0,0,1,0,3,0,0,0,1,0,12,0,0,0,0,0
289,Phnom Penh,Mean Chey,Stueng Mean Chey,8865846a9dfffff,2417.96,76,183764.96,104.89445484769465,11.54401704801037,5,0,0,0,0,1,2,0,0,1,0,0,4,0,0,0,1,0,6,0,0,0,0,1,7,0,0,0,0,1,3,0,0,0,1,0,6,0,0,0,0,1,5,0,0,0,0,1,2,0,0,1,0,0,3,0,0,0,1,0,3,0,0,0,1,0,4,0,0,0,1,0,5,0,0,0,0,1,4,0,0,0,1,0,4,0,0,0,1,0,4,0,0,0,1,0,6,0,0,0,0,1
290,Phnom Penh,Doun Penh,Srah Chak,8865846aa7fffff,1962.55,118,231580.9,104.9050129033116,11.58231414420763,5,0,0,0,0,1,4,0,0,0,1,0,4,0,0,0,1,0,3,0,0,0,1,0,10,0,0,0,0,0,4,0,0,0,1,0,6,0,0,0,0,1,1,0,1,0,0,0,2,0,0,1,0,0,2,0,0,1,0,0,3,0,0,0,1,0,1,0,1,0,0,0,1,0,1,0,0,0,1,0,1,0,0,0,3,0,0,0,1,0,3,0,0,0,1,0,8,0,0,0,0,1
291,Phnom Penh,Dangkao,Dangkao,8865846adbfffff,1784.57,104,185595.28,104.88842526597408,11.52248080736736,6,0,0,0,0,1,3,0,0,0,1,0,5,0,0,0,0,1,8,0,0,0,0,1,5,0,0,0,0,1,5,0,0,0,0,1,7,0,0,0,0,1,7,0,0,0,0,1,4,0,0,0,1,0,6,0,0,0,0,1,4,0,0,0,1,0,6,0,0,0,0,1,7,0,0,0,0,1,6,0,0,0,0,1,6,0,0,0,0,1,7,0,0,0,0,1,6,0,0,0,0,1
292,Phnom Penh,Tuol Kouk,Tuek L'ak Ti Muoy,8865846abdfffff,3847.67,38,146211.46,104.8977560149556,11.567341024565897,5,0,0,0,0,1,3,0,0,0,1,0,4,0,0,0,1,0,3,0,0,0,1,0,9,0,0,0,0,1,3,0,0,0,1,0,6,0,0,0,0,1,3,0,0,0,1,0,1,0,1,0,0,0,2,0,0,1,0,0,3,0,0,0,1,0,2,0,0,1,0,0,3,0,0,0,1,0,2,0,0,1,0,0,3,0,0,0,1,0,3,0,0,0,1,0,6,0,0,0,0,1
293,Phnom Penh,Chbar Ampov,Nirouth,8865846a53fffff,2051.43,46,94365.78,104.9489479807064,11.529803994056229,2,0,0,1,0,0,3,0,0,0,1,0,2,0,0,1,0,0,10,0,0,0,0,0,6,0,0,0,0,1,3,0,0,0,1,0,1,0,1,0,0,0,9,0,0,0,0,1,5,0,0,0,0,1,5,0,0,0,0,1,3,0,0,0,1,0,5,0,0,0,0,1,7,0,0,0,0,1,5,0,0,0,0,1,4,0,0,0,1,0,4,0,0,0,1,0,12,0,0,0,0,0
294,Phnom Penh,Doun Penh,Phsar Thmei Ti Bei,8865846ae3fffff,2351.24,88,206909.12,104.92093709762683,11.559931149612146,2,0,0,1,0,0,2,0,0,1,0,0,1,0,1,0,0,0,6,0,0,0,0,1,8,0,0,0,0,1,1,0,1,0,0,0,3,0,0,0,1,0,4,0,0,0,1,0,1,0,1,0,0,0,1,0,1,0,0,0,0,1,0,0,0,0,1,0,1,0,0,0,3,0,0,0,1,0,1,0,1,0,0,0,0,1,0,0,0,0,1,0,1,0,0,0,9,0,0,0,0,1
295,Phnom Penh,Chraoy Chongvar,Chrouy Changvar,8865846815fffff,1592.55,80,127404.0,104.92568359562488,11.608198804897071,6,0,0,0,0,1,7,0,0,0,0,1,6,0,0,0,0,1,4,0,0,0,1,0,13,0,0,0,0,0,6,0,0,0,0,1,7,0,0,0,0,1,4,0,0,0,1,0,5,0,0,0,0,1,4,0,0,0,1,0,6,0,0,0,0,1,3,0,0,0,1,0,2,0,0,1,0,0,4,0,0,0,1,0,4,0,0,0,1,0,4,0,0,0,1,0,11,0,0,0,0,0
296,Phnom Penh,Doun Penh,Srah Chak,8865846aa5fffff,2836.48,118,334704.64,104.92151624331046,11.586721240277068,4,0,0,0,1,0,5,0,0,0,0,1,4,0,0,0,1,0,4,0,0,0,1,0,11,0,0,0,0,0,3,0,0,0,1,0,5,0,0,0,0,1,3,0,0,0,1,0,3,0,0,0,1,0,1,0,1,0,0,0,3,0,0,0,1,0,1,0,1,0,0,0,0,1,0,0,0,0,1,0,1,0,0,0,2,0,0,1,0,0,2,0,0,1,0,0,10,0,0,0,0,0
297,Phnom Penh,Pur SenChey,Samraong Kraom,8865846c69fffff,654.28,88,57576.64,104.803889926491,11.560776884878484,15,0,0,0,0,0,12,0,0,0,0,0,14,0,0,0,0,0,9,0,0,0,0,1,14,0,0,0,0,0,13,0,0,0,0,0,16,0,0,0,0,0,10,0,0,0,0,0,11,0,0,0,0,0,12,0,0,0,0,0,13,0,0,0,0,0,12,0,0,0,0,0,12,0,0,0,0,0,12,0,0,0,0,0,13,0,0,0,0,0,13,0,0,0,0,0,3,0,0,0,1,0
298,Phnom Penh,Chamkar Mon,Boeng Keng Kang Ti Muoy,8865846ac7fffff,4631.23,96,444598.08,104.91401494710556,11.543410042590894,3,0,0,0,1,0,0,1,0,0,0,0,2,0,0,1,0,0,7,0,0,0,0,1,6,0,0,0,0,1,1,0,1,0,0,0,4,0,0,0,1,0,6,0,0,0,0,1,1,0,1,0,0,0,2,0,0,1,0,0,1,0,1,0,0,0,3,0,0,0,1,0,4,0,0,0,1,0,3,0,0,0,1,0,2,0,0,1,0,0,3,0,0,0,1,0,8,0,0,0,0,1
299,Phnom Penh,Saensokh,Khmuonh,886584689dfffff,666.25,108,71955.0,104.85998882285374,11.609599776623517,11,0,0,0,0,0,9,0,0,0,0,1,10,0,0,0,0,0,2,0,0,1,0,0,15,0,0,0,0,0,9,0,0,0,0,1,12,0,0,0,0,0,3,0,0,0,1,0,7,0,0,0,0,1,7,0,0,0,0,1,9,0,0,0,0,1,7,0,0,0,0,1,6,0,0,0,0,1,7,0,0,0,0,1,9,0,0,0,0,1,8,0,0,0,0,1,7,0,0,0,0,1
300,Phnom Penh,Mean Chey,Chak Angrae Kraom,8865846107fffff,2938.05,54,158654.7,104.92481553433676,11.50952465422096,5,0,0,0,0,1,3,0,0,0,1,0,4,0,0,0,1,0,10,0,0,0,0,0,3,0,0,0,1,0,4,0,0,0,1,0,4,0,0,0,1,0,10,0,0,0,0,0,5,0,0,0,0,1,6,0,0,0,0,1,4,0,0,0,1,0,7,0,0,0,0,1,8,0,0,0,0,1,7,0,0,0,0,1,6,0,0,0,0,1,6,0,0,0,0,1,10,0,0,0,0,0
301,Phnom Penh,Chamkar Mon,Boeng Keng Kang Ti Muoy,8865846ae3fffff,1702.23,62,105538.26,104.91516914587424,11.563961923378498,3,0,0,0,1,0,2,0,0,1,0,0,2,0,0,1,0,0,5,0,0,0,0,1,8,0,0,0,0,1,1,0,1,0,0,0,4,0,0,0,1,0,4,0,0,0,1,0,0,1,0,0,0,0,0,1,0,0,0,0,1,0,1,0,0,0,1,0,1,0,0,0,2,0,0,1,0,0,1,0,1,0,0,0,1,0,1,0,0,0,1,0,1,0,0,0,8,0,0,0,0,1
