name,lat,lon
KOI Thé RULE,11.535946,104.9233964
KOI Thé POIPET,13.6575749,102.562303
KOI Thé Toul Tum Poung,11.5381161,104.9154856
KOI Thé Phsar Thom Thmey,11.5678965,104.9213774
KOI Thé Preah Norodom,11.549053,104.928596
KOI Thé 2004,11.5528701,104.8805003
KOI Thé Veng Sreng,11.5315149,104.8602451
KOI Thé Mao Tse Toung,11.5466436,104.9084805
KOI Thé REACHTHEANY,11.5673235,104.8956495
KOI Thé KOB SROV,11.5425952,104.8117198
KOI Thé Toul Kork,11.5826401,104.8975645
KOI Thé Krong Battambang,13.10692,103.1971388
KOI Thé Chom Chao,11.5237732,104.8222356
KOI Thé Russey Keo,11.6095813,104.917748
KOI Thé Preah Trasak Paem,11.5534039,104.9235607
KOI Thé SKUN,12.0517766,105.042503
KOI Thé IFL,11.5678854,104.8936339
KOI Thé Expressway,11.1097957,103.9683119
KOI Thé Capital Lifestyle Park,11.5730632,104.9199773
KOI Thé AEON Mean Chey,11.4839303,104.9176684
KOI Thé Siem Reap Phsar Ler,13.3604797,103.8722355
KOI Thé Krong Kampot,10.6140184,104.1762964
KOI Thé TA KHMAO,11.4771829,104.9473169
KOI Thé Kampong Speu,11.4604582,104.5106571
KOI Thé ORUSSEY,11.5620662,104.9177588
KOI Thé Domrey Park,11.6303932,104.8848899
KOI Thé SIHANOUKVILLE,10.6207424,103.5259558
KOI Thé KOH NOREA,11.5480065,104.9565074
KOI Thé CHOUK MEAS MALL,11.5759854,104.8537565
KOI Thé Steung Mean Chey,11.5356954,104.886352
KOI Thé Piphop Thmey Chamkardoung,11.5126435,104.884792
KOI Thé Olympic,11.5540015,104.9095398
KOI Thé Eden Garden,11.5775317,104.9111131
KOI Thé The Green Mall,11.5983927,104.8756624
KOI Thé Siem Reap Sivutha,13.3607459,103.8553053
KOI Thé Chroy Chongva,11.5919283,104.9293906
KOI Thé Beoung Snor,11.537301,104.9607417
KOI Thé Aeon Mall Sen Sok City,11.6008558,104.8856663
KOI Thé Makro Chroy Changva,11.6828148,104.9202041
ធ្យូប កាហ្វេ មាត់ទន្លេ,11.5663735,104.931805
Tube coffee,11.5710296,104.9109413
ធ្យូប កាហ្វេផ្លឹស កាណាឌីយ៉ា,11.5725435,104.919685
ធ្យូប កាហ្វេ វិទ្យាស្ថានបារាំង,11.5620459,104.9209084
ធ្យូប កាហ្វេ បឹងកេងកង,11.5538481,104.9265884
អាន់ដឺក្រោនកាហ្វេ,11.5720982,104.9291224
ធ្យូប កាហ្វេ​ ផ្លូវ ៣១០,11.5506598,104.9149728
ធ្យូប កាហ្វេ សន្ធរម៉ុក,11.5670352,104.8982358
ធ្យូប កាហ្វេ គីរីរម្យ,11.5559758,104.9181061
ធ្យូប កាហ្វេ អាស៊ីអាគ្នេយ៍,11.5614937,104.8706361
ធ្យូប កាហ្វេ ព្រះមុនីរ៉េត,11.5552952,104.9061553
ធ្យូប កាហ្វេ ហេងលី,11.5608987,104.8896515
ធ្យូប កាហ្វេ សាលារូល,11.5360477,104.9234495
ធ្យូប កាហ្វេផ្លឹស កោះពេជ្រ,11.5447937,104.9398831
ធ្យូប កាហ្វេផ្លឹស ជ្រោយចង្វារ,11.5897212,104.9281337
ធ្យូប កាហ្វេ ច្បារអំពៅ,11.5320241,104.93805
ធ្យូប កាហ្វេ បាក់ទូក,11.5626498,104.9118476
ធ្យូប កាហ្វេផ្លឹស រាជធានី,11.5671674,104.8958558
ធ្យូប កាហ្វេ ទួលទំពូង,11.5415381,104.9141399
ធ្យូប កាហ្វេ ស្ទឹងមានជ័យ,11.5416557,104.8921666
ធ្យូប កាហ្វេផ្លឹស សម័យស៊្វែរ,11.5842588,104.8979316
ធ្យូប កាហ្វេ វេងស្រេង,11.5314764,104.8601711
ធ្យូប កាហ្វេ មានជ័យអាវីន្យូម៉ល,11.5105566,104.9264928
ធ្យូប កាហ្វេ ខេមកូ ស៊ីធី,11.5927389,104.8969384
ធ្យូប កាហ្វេ ផ្សារ ឈូកមាស,11.5760104,104.853872
ធ្យូប កាហ្វេ បឹងស្នោ,11.5345733,104.9558231
TUBE COFFEE Office,11.553046,104.8805496
ធ្យូប កាហ្វេ សម័យស៊្វែរ ទួលគោក,11.5848178,104.8978619
ធ្យូប កាហ្វេ ទួលសង្កែ ផ្លាហ្សា,11.5909377,104.9064772
ធ្យូប កាហ្វេ ឬស្សីកែវ,11.6095328,104.9177707
ធ្យូប កាហ្វេផ្លឹស ចំការដូង,11.5095644,104.8908369
ធ្យូប កាហ្វេ ដឹហ្គ្រីនម៉ល,11.5984298,104.8756159
ធ្យូប កាហ្វេ ព្រែកលៀប,11.6349658,104.9204766
Noir Coffee Vattanac,11.5725697,104.9198753
ធ្យូប កាហ្វេ តាខ្មៅ,11.4918787,104.9442257
ធ្យូប កាហ្វេ ដំរី ផាគ​ ៥៩៨,11.630297,104.8849552
Café Amazon Concept Store,11.5814077,104.8978986
កាហ្វេ អាម៉ាហ្សូន,11.5761891,104.9193424
Café Amazon Cambodia,11.5497423,104.9283049
ហាង​កាហ្វេ​អាមេហ្សូន,11.5338937,104.9611793
កាហ្វេអាម៉ាហ្សូនផ្សារថ្មីស្ត៊ែនអឹឡូន - Café Amazon Phsar Thmei Stand-Alone,11.5694123,104.9221862
Café Amazon Riverside,11.5660556,104.9320063
Cafe Amazon CCV3 New Town,11.6029784,104.927393
Café Amazon Bokor - 24/7,11.5442792,104.9219008
Café Amazon Phnom Penh Center BBU,11.5556983,104.9332825
Café Amazon Kampuchea Krom,11.5667368,104.8953335
KANG BREW Cafe Phnom Penh City Center,11.5807267,104.9100941
ហាងកាហ្វេ អាម៉ាហ្សូន (ទំនប់កប់ស្រូវ),11.5430794,104.8120819
Café Amazon,11.5509205,104.9156279
Cafe​ Amazon,11.5766716,104.8879284
ហាងកាហ្វេ អាម៉ាហ្សូន ទួលពង្រ,11.5011894,104.841206
ហាង​កាហ្វេ អាមេហ្សូន,11.5293196,104.9439661
Amazon Café,11.5674845,104.9185769
Café Amazon the Point,11.5452932,104.9115083
Café Amazon Sovanna 271,11.5452764,104.9002283
Cafe Amazon,11.5877624,104.9071667
amazon,11.5620047,104.921889
Café Amazon KPN Boeung Tamok,11.6626406,104.8458289
PTT Amazon Grand Phnom Penh,11.6469168,104.8627636
ហាង​កាហ្វេ Amazon សាខា​ពេទ្យ​ចិន,11.5527703,104.9212658
កាហ្វេ អាម៉ាហ្សូន ៥១,11.5588642,104.9254823
កាហ្វេ អាម៉ាហ្សូន ទេពផន,11.5621824,104.8956222
អាម៉ាហ្សូន កាហ្វេ,11.543858,104.9074753
កាហ្វេ អ៉ាម៉ាហ្សូន ម៉ុងឫន្ធី,11.5907955,104.8810934
Amazon Cafe,11.5125971,104.9341337
Café Amazon Attwood,11.5626544,104.8656154
កាហ្វេអាម៉ាហ្សូន សាខាជ្រោយចង្វាស៊ីធី,11.5983543,104.9265707
Café Amazon De Stadium,11.5548572,104.9102513
Amazon Krang Thnong,11.568757,104.8322313
DELISH COFFEE,11.5672625,104.9034804
Cafe Amazon PTT National Road１,11.5326326,104.9951639
Café Amazon PTT Steung Meanchey,11.5428035,104.8936371
កាហ្វេ អាម៉ាហ្សូន,11.5321019,104.8613903
Cafe Amazon,11.6563738,104.7597781
Café Amazon Exchange Square,11.573746,104.921378
Amazon Chuk Meas III,11.5767041,104.8537134
Café Amazon The Boss Building (Kapal),11.5732283,104.8973298
Morning Cafe / Mee Ramen,11.5480125,104.9378824
អាម៉ាហ្សូន កាហ្វេ ផ្សារទួលទំពូង,11.5414018,104.9152218
Amazon Cafe វិមានឈ្នះឈ្នះ,11.6764766,104.8824662
Café Amazon Ratana Plaza,11.5615125,104.8725781
Ttp Amazon cafe,11.5366619,104.9152894
Café Amazon City Mall,11.5581238,104.909093
Cafe Amazon Drive Thru Global House,11.5977694,104.8756866
Café Amazon,11.5367983,104.8869143
Cafe Amazon Baktouk,11.5655325,104.9148215
ហាងកាហ្វេ អាម៉ាស្សូន,11.5349599,104.9144256
Cafe Amazon,11.4443139,104.896903
កាហ្វេអាម៉ាហ្សូន ផ្លូវ២០០៤,11.5526751,104.8846903
Café Amazon Chom Chao,11.5347174,104.8280688
កាហ្វេ អាម៉ាហ្សូន ភីធីធី សែនសុខ,11.5983141,104.8696935
Café Amazon HQ,11.5679056,104.9107556
Café Amazon - Street 173,11.5483136,104.9111154
Amazon Café Kouk Kleang,11.5752658,104.8636088
Amazon Café Borey Keila,11.5660324,104.9112549
Café Amazon DN,11.5697891,104.9083618
Café Amazon Wat Phnom,11.581405,104.9197424
Café Amazon,11.532592,104.9541964
កាហ្វេ ឣាម៉ាហ្សូន,11.566625,104.853019
Café Amazon Chroy Changvar II,11.6097337,104.9279147
ហាងកាហ្វេ អាម៉ាហ្សូន ព្រៃព្រីង,11.5230942,104.8224755
Cafe Amazon Rupp,11.5674021,104.8923523
Amazon Café PTT TK Gas Station,11.5876689,104.8991033
Café Amazon Vithaurak,11.4425686,104.8849588
Café Amazon airport,11.5588824,104.8499793
Café Amazon New Maida,11.5582599,104.8570938
CAFE AMAZON,11.5528687,104.8440083
ហាងកាហ្វេ អាម៉ាហ្សូន ព្រៃស,11.4983259,104.8727047
Café Amazon Aeon Mall,11.5475962,104.9332389
Café Amazon PTT 371,11.5233447,104.8985459
ហាងកាហ្វេ អាម៉ាហ្សូន ព្រៃកី,11.4874096,104.8161394
Cafe Amazon,11.5878347,104.8825641
Café Amazon Bekchan,11.5110775,104.7524385
Café Amazon - PTT Aeon Sen Sok Station,11.6056133,104.8864163
Café Amazon Koh Krabei,11.4756613,104.9601053
Café Amazon Lucky Pavilion Mall Stand-Alone,11.5556099,104.9218369
Café Amazon Takhmao N21,11.4569475,104.958067
Café Amazon Takhmao Riverside,11.4800571,104.9496235
Café Amazon Arey Ksat,11.5774448,104.9560001
Cafe' Amazon RPH (Royal Phnom Penh Hospital),11.5620852,104.8808567
Café Amazon Beung Bai Tong,11.5884176,104.8588862
ហាងកាហ្វេ អាម៉ាហ្សូន ចំការដូង,11.5078265,104.8878238
Café Amazon Chip Mong Sen Sok Mall,11.5903222,104.8751191
"Café Amazon Chea Sim Samaki Street 271, Phnom Penh",11.5493812,104.8914337
Café Amazon Sa Ang,11.3615281,105.0045527
Cafe Amazon Kampu,11.5302963,104.9285227
Café Amazon Northbridge,11.5541571,104.8714036
Café Amazon,11.5704601,104.9054764
Amazon,11.6500892,104.8577378
Cafe Amazon SenSok City,11.601368,104.8856423
Cafe Amazon Maline Office,11.5387016,104.9275479
Amazon 123 Kakab,11.5670904,104.8242299
"Amazon Café Hanoi Blvd., កាហ្វេអាម៉ាហ្សូនមហាវិថីហាណូយ",11.6268722,104.855995
Cafe Amazon Phsar Daeum Thkov,11.5340049,104.9181726
Café Amazon,11.5351833,104.8836499
Café Amazon Grand Phnom Penh II,11.6349246,104.869086
Café Amazon Rule,11.5354936,104.9234882
កាហ្វេអាម៉ាហ្សូន ព្រែកព្នៅ,11.6799408,104.8504147
Café Amazon | Toul Svay Prey 2,11.5519395,104.9056732
Amazon Cafe 6A The Star Munirah,11.6460923,104.9157021
កាហ្វេអាម៉ាហ្សូនអង់តែន (វត្តទួល) - Café Amazon Antenna (Wat Tuol),11.6112142,104.901618
Amazon's Coffee,11.5631977,104.8419064
Café Amazon Indradevi,11.5765718,104.8910855
Café Amazon AsianHope,11.5936392,104.8512067
KN coffee,11.5726204,104.9237811
ហាងកាហ្វេ អាម៉ាហ្សូន មីតធីង ផ័ញ,11.4734079,104.8925666
ស្ថានីយ​ប្រេង​ឥន្ធនៈ​ភីធីធី,11.5483292,104.9113587
Café Amazon | Heng Ly Market,11.5608905,104.8894086
Cafè Amazon Dey Hoy,12.1454395,104.9824451
Café Amazon | TK Central,11.5824461,104.9003403
ហាងកាហ្វេ អាម៉ាហ្សូន កណ្ដាលស្ទឹង,11.3774069,104.7582362
សាខាផ្សារដើមគរ,11.5555067,104.9015918
ប្រោនកាហ្វេ,11.5760935,104.9260889
BROWN Coffee | Raintree,11.5720022,104.9191326
ប្រោនរ៉ូស្ទឺរី បឹងកេងកង,11.5532865,104.9248357
BROWN Coffee | Calmette,11.5808855,104.9164805
ប្រោនកាហ្វេ រ៉ូស្ទ័រី-ខាលែនដេល,11.5764598,104.9105529
ហាងកាហ្វេ ប្រោន សាខាអ៊ិចឆេងស្វ៊ែរ,11.5737993,104.9219374
ហាង​កាហ្វេ​ BROWN សុធារស​,11.5579187,104.9332983
ប្រោនកាហ្វេ (ផេនសល),11.5615462,104.9258726
ហាង​កាហ្វេ​ប្រោន សាខា​ព្រះ​នរោត្ដម,11.5511153,104.9287997
BROWN Coffee | TK Avenue,11.5832712,104.8986803
កាហ្វេ ១៣ ឧសភា - អុិចឆេងស្វ៊ែរ,11.5740566,104.9217218
BROWN Phnom Penh City Center - X,11.5728573,104.9084976
ប្រោនកាហ្វេ ទួលទំពូង,11.5384457,104.9152644
ប្រោនបូកគោ,11.5439994,104.9235151
BROWN Coffee | AEON Mall Phnom Penh,11.5477409,104.9342575
ប្រោនកាហ្វេ អាយអេហ្វអិល,11.5680581,104.8943203
BROWN Roastery 6A,11.5927356,104.9294503
BROWN Coffee | Head Office,11.5532541,104.9248199
ប្រោនកាហ្វេ,11.534538,104.9229456
BROWN Roastery | Pasteur,11.5547711,104.9264798
ហាង​កាហ្វេ ប្រោន កោះ​នរា,11.5475101,104.9575686
ហាងកាហ្វេប្រោន ទួលគោក,11.580838,104.8959592
BROWN Coffee | IFL 2,11.5675707,104.893506
កាហ្វេ​ ខ្ចប់(វត្តភ្នំ)​ Coffee Kjob(Wat Phnom),11.5784791,104.9217051
BROWN Coffee | Midtown,11.5530265,104.8798442
BROWN Coffee | Roastery Park Mall,11.5339059,104.9544905
BROWN Roastery Olympia,11.560487,104.912809
ហាង​កាហ្វេ​ BROWN​ តា​ខ្មៅ​,11.4793128,104.9477581
BROWN Coffee | Big Tree,11.6210901,104.9123694
BROWN Coffee | Mean Chey,11.5114464,104.9263293
BROWN Roastery | Aeon Sen Sok City,11.6006271,104.8854134
Brown Coffee Airport,11.5554053,104.8456112
BROWN Roastery | GIA,11.5526212,104.9399124
BROWN Coffee,11.5231828,104.9237446
BROWN Roastery | Maline,11.5388281,104.928084
BROWN Coffee | The Ground Market,11.5353871,104.9540235
BROWN Coffee | DTT,11.5518074,104.9399815
Brown coffee and bakery,11.6305959,104.8846931
BROWN Roastery | K-Mall,11.5318104,104.8672998
ហាង​កាហ្វេ BROWN,11.5161179,104.9549973
ហាងកាហ្វេ លិតឆា (សាខាប៉ារីសកម្ពុជាក្រោម),11.5682279,104.9106363
កាហ្វេប្រោន រ៉ូស្ទើរី ២៧១,11.5375932,104.9103489
BROWN Mao Tse Toung,11.544175,104.913518
កាហ្វេលីង,11.584331,104.9285737
Brown Coffee Pop-Up,11.548284,104.928145
Brown coffee and bakery,11.5527321,104.8449299
កាហ្វេដូង ផ្លូវត្រសក់ផ្អែម,11.5580075,104.9226182
ម្ជូរបាក់ទូក72,11.5654974,104.9140287
ប្រ៊ូវខហ្វហ្វី សាខាជ្រោយចង្វារ,11.5836436,104.937912
ស្ដារប័កស៍ | មាត់ទន្លេ ៣១៣,11.5680472,104.9306184
ចក្រពត្តិ កាហ្វេ,11.5899614,104.8958246
ស្តារបាក់ កាហ្វេ ជ្រោយចង្វា,11.5886882,104.9275201
TH Coffee,11.5502921,104.9156453
BROWN Roastery Aeon Mall Mean Chey,11.4833077,104.9183238
Muoypoan_mophaibram_ey,11.5669465,104.8920615
កាហ្វេដូង coffee doung,11.5832748,104.8961524
Monin Coffee,11.5729541,104.8741073
ធ្យូប កាហ្វេផ្លឹស កាណាឌីយ៉ា,11.5725435,104.919685
ធ្យូប កាហ្វេ ទួលទំពូង,11.5415381,104.9141399
ស្ដារប័កស៍ | ប្រៃសណីយ៍,11.575413,104.9256743
Starbucks,11.5657782,104.9253393
ស្ដារប័កស៍ | Exchange Square,11.5736798,104.920977
ស្ដារប័កស៍ | មាត់ទន្លេ ៣១៣,11.5680472,104.9306184
Starbucks Reserve BKK Flagship Store,11.5539666,104.9250084
ស្តារបាក់ កាហ្វេ,11.5771026,104.9104636
ស្ដារប័កស៍ | អាគារ​ភ្នំពេញ,11.558289,104.920002
ស្ដារប័កស៍ | មុនីវង្ស,11.5739483,104.9181059
ស្តារបាក់ កាហ្វេ សូរិយា,11.5680077,104.9211229
ស្តារបាក់ កាហ្វេ ជ្រោយចង្វា,11.5886882,104.9275201
ស្ដារប័កស៍ | ធីឃេ អេវេនូ,11.58359,104.899251
ស្ដារប័កស៍ | បូកគោ,11.5442982,104.9229838
ស្ដារប័កស៍,11.5484679,104.932067
ស្ដារប័កស៍ | នរម៉ល,11.5484207,104.9282173
ស្ដារប័កស៍ | ធីឃេ រ៉ូយ៉ាល់ វ័ន,11.5674597,104.8928663
ស្ដារប័កស៍ | ផ្សារ​អូឡាំព្យ៉ា,11.5615465,104.9130144
ស្ដារប័កស៍ | អាគារ​ឌឺប្រ៊ីដ,11.5520788,104.9354317
ស្ដារប័កស៍ | សាគូរ៉ា អេវេញូ,11.5991171,104.9264141
ស្ដារប័កស៍ | ទួលទំពូង,11.5371431,104.9155752
ស្ដារប័កស៍ | ផ្សារ​ឡាក់គី,11.5558149,104.922059
ស្ដារប័កស៍ | កាល់ម៉ែត,11.580894,104.9165374
ស្ដារប័កស៍ | ព្រីនស៍,11.5445358,104.9357214
ស្ដារប័កស៍ | ឌឺ ភ័ញ,11.5449116,104.911455
ស្ដារប័កស៍ | អាគារ​វីតាល់,11.6033125,104.8996875
ស្ដារប័កស៍ | កោះ​ពេជ្រ,11.5514954,104.94038
ហាង​កាហ្វេ​ Starbucks បឹង​ស្នោ​,11.535232,104.9569092
ស្ដារប័កស៍ | តូតាល់ អង្គរ​ភ្នំពេញ,11.6071462,104.8873891
ស្ដារប័កស៍ | ម៉ែដា ២០០៤,11.5523885,104.8759003
ស្ដារប័កស៍ | ជីបម៉ុង ២៧១,11.5235629,104.9234217
ស្ដារប័កស៍ | អ៊ីអន ២,11.5999472,104.8851033
ស្ដារប័កស៍ | ជីបម៉ុង សែនសុខ,11.5901531,104.8751108
ស្ដារប័កស៍ | សែនសុខ,11.5829713,104.8701815
ស្ដារប័កស៍ | ហ្វ័ន​ម៉ល,11.57767,104.8937956
ស្ដារប័កស៍ | ស៊ីជី ម៉ល,11.5581674,104.8489303
ស្ដារប័កស៍ | ព្រលាន,11.5523325,104.8446731
ស្ដារប័កស៍ | តូតាល់ ពោធិចិនតុង,11.5632151,104.8648785
ស្ដារប័កស៍ | តា​ខ្មៅ,11.4810762,104.949649
ស្ដារប័កស៍ | អ៊ីអន មានជ័យ,11.4848362,104.9198643
ស្ដារប័កស៍ | តូតាល់​ចម្ការ​ដូង,11.5143568,104.8902379
ស្ដារប័កស៍ | ឌី ឃេ ហ្ក្រោនដ៍,11.6272407,104.8865108
Starbucks,11.5449063,104.9114846
ស្ដារប័កស៍ | ស្ទឹងមានជ័យ,11.5349404,104.8851365
ស្ដារប័កស៍ | សួនអឺរ៉ូ,11.5167559,104.9568068
ស្ដារប័កស៍ | អ៊ីអន​មាន​ជ័យ,11.4836124,104.9182617
Coffee Concepts (Cambodia) Limited (STARBUCKS),11.5532177,104.9401767
ACLEDA ATM - Starbucks,11.5886554,104.9274576
